,name,price,rating,zip code,latitude,longitude,review count,competitors,subway_around,target1,target1_norm,target2,target2_norm,target3,target3_norm
0,Dim Sum Palace,$$,4.0,10036.0,40.76015,-73.9893699,493,45,10,918.6744444444445,0.12444579693317208,4930,0.10707290533188248,4.0,0.75
1,Wah Fung No 1,$,4.5,10002.0,40.71735,-73.99457,819,227,4,684.5,0.10056164752412969,8190,0.17801958650707292,4.5,0.875
2,Tasty Garden,$,5.0,10009.0,40.72485,-73.98306,16,39,0,-102.7725,0.020265379243278855,160,0.003264417845484222,5.0,1.0
3,Peng's Noodle Folk,$$,4.5,10028.0,40.77726,-73.94932,174,26,4,98.0,0.04074276480344655,1740,0.03764961915125136,4.5,0.875
4,Zest Szechuan,$$,4.0,10018.0,40.75274,-73.98445,240,50,16,407.70565217391305,0.07233056716546528,2400,0.05201305767138194,4.0,0.75
5,Tuome,$$$,4.5,10009.0,40.724124827240004,-73.9828906263924,290,39,0,751.2275,0.10736738409146879,2900,0.06289445048966268,4.5,0.875
6,Shu Jiao Fu Zhou Cuisine Restaurant,$,4.5,10002.0,40.7184290357839,-73.9916928979573,387,227,9,252.5,0.05650068020045516,3870,0.08400435255712731,4.5,0.875
7,China Jade,$$,4.5,10028.0,40.77747,-73.95239000000001,19,28,4,-212.0,0.009124941029513434,190,0.003917301414581066,4.5,0.875
8,China Xiang,$$,4.0,10036.0,40.758290212563296,-73.99251139938991,235,38,8,402.6744444444444,0.0718174192965608,2350,0.05092491838955386,4.0,0.75
9,Han Dynasty,$$,4.0,10024.0,40.78752,-73.97646999999999,339,19,5,541.52,0.08597869125575242,3390,0.0735582154515778,4.0,0.75
10,Han Dynasty,$$,4.0,10003.0,40.732071999999995,-73.988074,904,54,9,1621.4971428571428,0.19612877829682637,9040,0.19651795429815017,4.0,0.75
11,Xi'an Famous Foods,$,4.0,10075.0,40.77197,-73.95452,344,21,0,208.79,0.05204256704833058,3440,0.07464635473340588,4.0,0.75
12,Café China,$$,4.0,10016.0,40.7499225208569,-73.98194641271971,867,55,0,1674.0775,0.20149160560686938,8670,0.18846572361262243,4.0,0.75
13,Xi'an Famous Foods,$,4.0,10036.0,40.75574,-73.98085,1169,37,14,1101.6744444444444,0.14311051225778418,11690,0.2541893362350381,4.0,0.75
14,Szechuan Garden,$$,4.0,10025.0,40.8003719688892,-73.96764913086021,159,23,5,172.99666666666667,0.048391898320540326,1590,0.03438520130576714,4.0,0.75
15,Jasmine Restaurant,$$,4.0,10017.0,40.754670000000004,-73.97057,104,38,9,132.85,0.044297220153516136,1040,0.022415669205658323,4.0,0.75
16,Tri Dim Shanghai,$$,4.0,10075.0,40.77395,-73.95793,86,18,8,36.78999999999999,0.0344997745027935,860,0.018498367791077257,4.0,0.75
17,Auntie Guan's Kitchen 108,$$,4.0,10011.0,40.737721347759795,-73.99741485125179,234,26,20,323.13,0.06370444437191611,2340,0.050707290533188246,4.0,0.75
18,Excellent Dumpling House,$$,4.0,10011.0,40.744049439635795,-73.995028194335,222,25,17,299.13,0.06125661285393419,2220,0.04809575625680087,4.0,0.75
19,Xi'an Famous Foods,$,4.0,10016.0,40.747844,-73.983901,440,56,9,380.0775,0.06951268959567758,4400,0.09553862894450489,4.0,0.75
20,La Salle Dumpling Room,$$,4.0,10023.0,40.7731596,-73.98951,36,7,0,69.5,0.03783596487584302,360,0.007616974972796518,4.0,0.75
21,Chaan Teng,$$,4.0,10036.0,40.7622036680455,-73.98986823856829,108,40,7,148.67444444444442,0.045911202397918835,1080,0.023286180631120784,4.0,0.75
22,Burp Bowl Cafe,$,4.5,10010.0,40.74183,-73.98271,104,52,7,34.412499999999994,0.03425728619304342,1040,0.022415669205658323,4.5,0.875
23,Shanghai,$,4.0,10021.0,40.768291,-73.958381,57,18,4,-89.58166666666662,0.021610751642519684,570,0.012187159956474429,4.0,0.75
24,Radiance Tea House and Books,$$,4.0,10019.0,40.7639799,-73.98065,748,34,19,1349.75,0.16841247741319101,7480,0.16256800870511426,4.0,0.75
25,Joe's Shanghai,$$,4.0,10013.0,40.714669144289104,-73.99776022066541,4596,222,0,9035.623333333333,0.9523176019361111,45960,1.0,4.0,0.75
26,Xi'an Famous Foods,$$,4.0,10019.0,40.7620964050293,-73.9773178100586,195,36,12,243.75,0.055608241626190914,1950,0.04221980413492927,4.0,0.75
27,Buddakan,$$$,4.0,10011.0,40.7422275387194,-74.00470664781571,3216,14,8,9503.13,1.0,32160,0.6996735582154516,4.0,0.75
28,Noodle Fun,$$,4.0,10128.0,40.779533386230504,-73.94703674316409,100,19,0,127.5,0.04375155771096599,1000,0.021545157780195865,4.0,0.75
29,China Blue,$$,4.0,10013.0,40.724081417449,-74.00986075401309,389,5,2,621.6233333333333,0.09414866892361679,3890,0.08443960826985854,4.0,0.75
30,Very Fresh Noodles,$$,4.0,10011.0,40.742338700848606,-74.0061374945942,289,12,0,433.13,0.07492367216266657,2890,0.06267682263329706,4.0,0.75
31,Xi'an Famous Foods,$,4.0,10003.0,40.72782,-73.98550999999999,1394,51,0,1207.4971428571428,0.15390368461163828,13940,0.3031556039173014,4.0,0.75
32,Asura Asian Bistro,$$,4.0,10001.0,40.7522492,-73.991222,248,40,29,379.6877777777778,0.06947294066489369,2480,0.05375408052230685,4.0,0.75
33,Pig Heaven,$$,4.0,10028.0,40.775433,-73.956856,177,23,4,104.0,0.04135472268294203,1770,0.03830250272034821,4.0,0.75
34,Hunan Bistro,$$,4.0,10003.0,40.73234,-73.9881,144,54,9,101.49714285714282,0.0410994488246382,1440,0.031120783460282915,4.0,0.75
35,MáLà Project,$$,4.0,10009.0,40.727129999999995,-73.98541999999999,298,50,0,477.2275,0.07942130759450855,2980,0.0646354733405876,4.0,0.75
36,Decoy,$$$,4.0,10014.0,40.734196000000004,-74.006519,245,21,4,428.53363636363633,0.0744548753386167,2450,0.053101196953210014,4.0,0.75
37,Fishmarket Restaurant,$$,4.5,10038.0,40.70717,-74.00192,380,26,0,710.5,0.10321346500194344,3800,0.08248095756256801,4.5,0.875
38,Joe's Shanghai,$$,3.5,10019.0,40.7627694517048,-73.9759005803566,1158,31,14,2169.75,0.2520467209442399,11580,0.25179542981501635,3.5,0.625
39,Lam Zhou Handmade Noodle & Dumpling,$,4.0,10013.0,40.715559999999996,-73.99691999999999,1168,225,0,1011.6233333333333,0.13392593109082296,11680,0.25397170837867244,4.0,0.75
40,Uncle Ted's Modern Chinese Cuisine,$$,4.0,10012.0,40.72882,-73.999961,345,29,3,491.2669230769231,0.08085323019042419,3450,0.07486398258977149,4.0,0.75
41,Niu Noodle House,$$,4.0,10014.0,40.734352,-74.00008199999999,524,31,9,741.5336363636363,0.10637867805229756,5240,0.11381936887921654,4.0,0.75
42,Flor De Mayo,$$,4.0,10024.0,40.7860908508301,-73.9765853881836,983,16,4,1829.52,0.21734564938744869,9830,0.21371055495103372,4.0,0.75
43,Dim Sum Palace,$$,4.0,10019.0,40.76259,-73.97681,66,32,12,-14.25,0.029294052807885287,660,0.014145810663764961,4.0,0.75
44,Chop Shop II,$$,4.0,10010.0,40.7433280944824,-73.9911651611328,150,34,19,230.4125,0.05424791025656242,1500,0.03242655059847661,4.0,0.75
45,Shanghai Asian Manor,$$,4.0,10013.0,40.71441,-73.99902,1152,219,0,2147.6233333333334,0.24978995627530046,11520,0.25048966267682266,4.0,0.75
46,Ding Szechuan and Hot Pot Restaurant,$$,3.5,10036.0,40.760528564453104,-73.98638916015621,118,52,26,168.67444444444442,0.0479510619962371,1180,0.02546245919477693,3.5,0.625
47,The Bao,$$,3.5,10003.0,40.72939,-73.988912,838,53,4,1489.4971428571428,0.18266570494792583,8380,0.18215451577801958,3.5,0.625
48,Yummy City,$,4.5,10029.0,40.7879244458184,-73.94898635581801,21,24,6,-32.27428571428572,0.02745570219702946,210,0.004352557127312296,4.5,0.875
49,Fu Xing,$,4.0,10018.0,40.754589387013,-73.9912518276348,33,40,14,-39.29434782608695,0.026739705143052052,330,0.006964091403699674,4.0,0.75
50,Bugis Street Brasserie & Bar,$$,5.0,10036.0,40.756768900000004,-73.9843329,8,52,23,-51.32555555555557,0.02551260641473618,80,0.0015233949945593036,5.0,1.0
51,Spice Symphony,$$,4.0,10016.0,40.744721999999996,-73.981202,432,59,16,804.0775,0.11275771308002483,4320,0.09379760609357998,4.0,0.75
52,Nom Wah Tu,$$,4.0,10002.0,40.715340000000005,-73.9914,9,221,4,-116.5,0.018865270611483152,90,0.0017410228509249185,4.0,0.75
53,Szechuan Gourmet,$$,3.5,10018.0,40.752359999999996,-73.98355,814,54,12,1555.705652173913,0.18941850810893374,8140,0.17693144722524484,3.5,0.625
54,Wu Liang Ye,$$,3.5,10036.0,40.7578086853027,-73.9799423217773,427,38,17,786.6744444444445,0.11098272358427153,4270,0.0927094668117519,3.5,0.625
55,Spicy Village,$,4.0,10002.0,40.71695,-73.99327,395,228,3,260.5,0.05731662403978246,3950,0.08574537540805223,4.0,0.75
56,The Tang,$$,4.0,10009.0,40.72703,-73.98539,168,50,0,217.22750000000002,0.0529031328163711,1680,0.03634385201305767,4.0,0.75
57,Lotus Blue,$$,3.5,10003.0,40.736070750946,-73.99174660587849,6,41,12,-174.50285714285718,0.012949386367846132,60,0.001088139281828074,3.5,0.625
58,Hunan Manor,$$,3.5,10016.0,40.74965,-73.97707,197,45,12,334.0775,0.06482101251954557,1970,0.0426550598476605,3.5,0.625
59,Xi'an Famous Foods,$,4.0,10025.0,40.79847,-73.96934,267,28,5,121.99666666666667,0.04319025634482875,2670,0.05788900979325354,4.0,0.75
60,Radiance,$$,4.0,10022.0,40.7555779423723,-73.9703503944427,117,39,16,56.87299999999999,0.03654809951844479,1170,0.025244831338411315,4.0,0.75
61,Legend 72,$$,3.0,10023.0,40.77796,-73.9796901,146,11,4,289.5,0.06027442045734394,1460,0.031556039173014146,3.0,0.5
62,Spice Symphony,$$,4.0,10022.0,40.7558937072754,-73.9715347290039,86,43,16,-5.1270000000000095,0.030224534763658162,860,0.018498367791077257,4.0,0.75
63,Little Alley,$$,4.0,10016.0,40.747440000000005,-73.97728000000001,81,50,0,102.07749999999999,0.041158641179053684,810,0.017410228509249184,4.0,0.75
64,Pa Pa Thai Cuisine,$,4.5,10022.0,40.7593778206059,-73.9624154842934,56,32,0,-121.12700000000001,0.018393349093412222,560,0.011969532100108813,4.5,0.875
65,Ningbo Cafe,$$,4.0,10280.0,40.708141,-74.017791,78,13,0,153.5,0.04640337518877974,780,0.01675734494015234,4.0,0.75
66,Sun Hing Lung Co,$,4.5,10002.0,40.7129253167705,-73.9949862286448,103,215,0,-31.5,0.027534673904335782,1030,0.02219804134929271,4.5,0.875
67,Vanessa's Dumpling House,$,4.0,10002.0,40.71839,-73.99173990000001,2093,227,9,1958.5,0.23050070393700325,20930,0.45527747551686615,4.0,0.75
68,Land of Plenty,$$,3.5,10022.0,40.76063,-73.96664,239,37,11,300.873,0.06143438661792763,2390,0.05179542981501632,3.5,0.625
69,Xi'an Famous Foods,$,4.0,10012.0,40.7209700345993,-73.9961278438568,104,196,6,-94.73307692307691,0.021085343959699,1040,0.022415669205658323,4.0,0.75
70,21 Shanghai House,$$,4.0,10002.0,40.7140138244835,-73.99644549325409,319,222,0,503.5,0.08210091815934939,3190,0.0692056583242655,4.0,0.75
71,Carma East,$$,4.0,10009.0,40.725409899999995,-73.98326999999999,112,40,0,105.2275,0.041479919065788816,1120,0.024156692056583242,4.0,0.75
72,Tasty Hand-Pulled Noodles,$,4.0,10013.0,40.7142,-73.99786999999999,1239,220,0,1082.6233333333332,0.1411674326648528,12390,0.2694232861806311,4.0,0.75
73,Grand Sichuan,$$,3.5,10001.0,40.747413,-74.001052,369,20,5,621.6877777777778,0.0941552418045447,3690,0.08008705114254625,3.5,0.625
74,Hao Noodle and Tea By Madam Zhu's Kitchen,$$,3.5,10014.0,40.7334863190479,-73.9998929006093,278,33,11,249.53363636363633,0.05619813193366822,2780,0.0602829162132753,3.5,0.625
75,La Salle Dumpling Room,$$,4.0,10027.0,40.814029999999995,-73.95983000000001,118,9,4,176.0,0.04869821723688779,1180,0.02546245919477693,4.0,0.75
76,Tang Pavilion,$$,3.5,10019.0,40.762848999999996,-73.977189,264,27,12,381.75,0.06968327285458695,2640,0.05723612622415669,3.5,0.625
77,Yuan,$$,3.5,10003.0,40.72975,-73.98724,49,55,1,-88.50285714285718,0.021720782640614677,490,0.01044613710554951,3.5,0.625
78,Junzi Kitchen,$$,4.0,10025.0,40.8057641877461,-73.9652019005902,54,16,8,-37.00333333333333,0.02697337253819854,540,0.011534276387377584,4.0,0.75
79,Cheong Fun Cart,$,5.0,10013.0,40.7176279773311,-73.99637368570559,35,225,3,-121.3766666666667,0.018367884846093214,350,0.007399347116430903,5.0,1.0
80,Shu Han Ju,$$,3.5,10011.0,40.73558,-73.99843,110,34,15,75.13,0.03841018535276961,1100,0.02372143634385201,3.5,0.625
81,Little Tong Noodle Shop,$$,4.0,10003.0,40.72939,-73.98434,111,52,4,35.49714285714282,0.034367912150187925,1110,0.023939064200217627,4.0,0.75
82,Noodle Village,$,4.0,10013.0,40.714166999999996,-73.99880300000001,700,219,0,543.6233333333333,0.08619321649017556,7000,0.15212187159956475,4.0,0.75
83,Savour Sichuan,$$,3.5,10018.0,40.75311,-73.98614,142,47,26,211.70565217391305,0.052339943101946285,1420,0.030685527747551688,3.5,0.625
84,Golden Forest,$,4.0,10002.0,40.716648,-73.989471,104,187,9,-30.5,0.027636666884251693,1040,0.022415669205658323,4.0,0.75
85,Ahana,$$,4.0,10065.0,40.762245799999995,-73.9598571,100,19,0,-7.828571428571422,0.02994899344320247,1000,0.021545157780195865,4.0,0.75
86,Hakkasan,$$$$,3.5,10036.0,40.758619,-73.989961,680,49,9,2652.6744444444444,0.30130162410736566,6800,0.14776931447225244,3.5,0.625
87,Spice Noodle,$$$,3.5,10029.0,40.7867088,-73.9499588,25,26,4,21.725714285714282,0.03296332311248878,250,0.005223068552774755,3.5,0.625
88,La Vie en Szechuan,$$,3.5,10016.0,40.7473584983999,-73.98439809325409,365,57,10,670.0775,0.09909065377129243,3650,0.07921653971708378,3.5,0.625
89,Pinch Chinese,$$,4.0,10012.0,40.72645,-74.0018,106,26,3,13.266923076923092,0.032100585790617635,1060,0.022850924918389554,4.0,0.75
90,Happy Hot Hunan,$$,3.5,10025.0,40.80133,-73.96466,95,25,0,44.99666666666667,0.03533679689130343,950,0.020457018498367792,3.5,0.625
91,Hot Kitchen,$$,3.5,10022.0,40.7570698,-73.9674267,133,35,6,88.87299999999999,0.03981187487575401,1330,0.028726877040261153,3.5,0.625
92,Asia Express,$,3.5,10016.0,40.741,-73.97906,37,37,0,-22.922500000000007,0.028409518689564525,370,0.007834602829162133,3.5,0.625
93,Auntie Guan's Kitchen,$,3.5,10011.0,40.73863,-73.98193,104,40,0,-40.870000000000005,0.026578999682523675,1040,0.022415669205658323,3.5,0.625
94,Shorty Tang Noodle Shop,$$,3.5,10011.0,40.740190000000005,-74.00187,98,22,16,51.129999999999995,0.03596235383478769,980,0.021109902067464634,3.5,0.625
95,Chef Ho's,$$,3.5,10128.0,40.77997,-73.95,183,24,3,293.5,0.0606823923770076,1830,0.03960826985854189,3.5,0.625
96,RedFarm,$$$,3.5,10024.0,40.782051,-73.98041500000001,447,14,4,1204.52,0.1536000369400029,4470,0.0970620239390642,3.5,0.625
97,Hing Won,$,3.5,10036.0,40.7579956054688,-73.9803848266602,167,41,17,99.67444444444443,0.04091354638203908,1670,0.036126224156692054,3.5,0.625
98,Mapo Tofu,$$,3.5,10016.0,40.749832,-73.977531,275,49,12,490.0775,0.08073191738642804,2750,0.05963003264417845,3.5,0.625
99,Grand Sichuan Eastern,$$,3.5,10022.0,40.758308410644496,-73.9663619995117,209,34,3,240.873,0.055314807822972836,2090,0.045266594124047876,3.5,0.625
100,Ollie's Sichuan,$$,3.0,10036.0,40.75884,-73.99319,387,39,1,706.6744444444445,0.10282328519099845,3870,0.08400435255712731,3.0,0.5
101,Wa Jeal Sichuan Chili House,$$,3.5,10028.0,40.77536,-73.95317,353,28,4,456.0,0.07725625161334351,3530,0.07660500544069641,3.5,0.625
102,Red Hot HotPot,$$,4.0,10025.0,40.8014032,-73.9615043,6,25,3,-133.00333333333333,0.017182046466270865,60,0.001088139281828074,4.0,0.75
103,King's Kitchen,$,4.0,10002.0,40.713985,-73.993675,122,221,3,-12.5,0.029472540522738136,1220,0.026332970620239392,4.0,0.75
104,Szechuan Garden Kitchen,$,4.0,10026.0,40.802006,-73.956726,11,17,7,-46.0,0.02605577569555504,110,0.002176278563656148,4.0,0.75
105,Mee Noodle Shop & Grill,$,3.5,10022.0,40.7540692621136,-73.9688620062703,239,37,0,61.87299999999999,0.03705806441802435,2390,0.05179542981501632,3.5,0.625
106,Flor de Mayo,$$,4.0,10025.0,40.797832,-73.969948,425,26,5,704.9966666666667,0.10265216363580619,4250,0.09227421109902068,4.0,0.75
107,Rice & Gold,$$,4.0,10013.0,40.715990000000005,-73.99683,12,224,0,-132.3766666666667,0.017245962067018165,120,0.002393906420021763,4.0,0.75
108,Main Noodle House,$$,3.5,10018.0,40.752143,-73.986396,303,46,20,533.705652173913,0.08518168263487036,3030,0.06572361262241568,3.5,0.625
109,Szechuan Gourmet 56,$$,3.0,10019.0,40.765716999999995,-73.98286709999999,302,34,22,457.75,0.07743473932819636,3020,0.06550598476605006,3.0,0.5
110,BaoHaus,$,3.5,10003.0,40.7324690923782,-73.98571360111241,1650,55,7,1463.4971428571428,0.1800138874701121,16500,0.3588683351468988,3.5,0.625
111,A Taste Of China,$$,4.0,10010.0,40.7377036968826,-73.9813949,33,42,0,-3.5875000000000057,0.030381552956238712,330,0.006964091403699674,4.0,0.75
112,Hot Sichuan,$$,3.5,10011.0,40.74354,-74.00326,82,15,2,19.129999999999995,0.03269857847747847,820,0.0176278563656148,3.5,0.625
113,A-jiao,$$,3.5,10128.0,40.783159000000005,-73.94824399999999,85,26,4,97.5,0.04069176831348859,850,0.018280739934711642,3.5,0.625
114,Wok 88,$$,3.5,10128.0,40.78042,-73.95322,195,23,9,317.5,0.06313022389498951,1950,0.04221980413492927,3.5,0.625
115,Congee Village,$$,3.5,10002.0,40.7187,-73.99031,1276,175,11,2417.5,0.2773154817184074,12760,0.27747551686615884,3.5,0.625
116,Sichuan Bistro,$$,4.0,10010.0,40.73772,-73.98139,22,42,0,-25.587500000000006,0.028137707398088622,220,0.0045701849836779105,4.0,0.75
117,The Rice Noodle,$,3.5,10012.0,40.729087,-74.001525,77,27,5,-121.73307692307691,0.01833153350196934,770,0.016539717083786723,3.5,0.625
118,Chen's Buffet Bar,$,4.0,10038.0,40.70712,-74.00845,22,21,29,-27.5,0.027942645823999437,220,0.0045701849836779105,4.0,0.75
119,Peking Duck House,$$$,3.5,10022.0,40.756912,-73.968109,316,37,11,770.873,0.10937108717840688,3160,0.06855277475516866,3.5,0.625
120,Shanghai Mong,$$,3.0,10001.0,40.747611999511705,-73.9871597290039,397,46,15,677.6877777777778,0.09986684867983585,3970,0.08618063112078346,3.0,0.5
121,99 Favor Taste - St. Marks,$$,4.0,10003.0,40.728833,-73.98809399999999,69,53,2,-48.50285714285718,0.025800501837251206,690,0.014798694232861806,4.0,0.75
122,May Wah Fast Food,$,4.0,10013.0,40.718135,-73.998497,242,219,11,85.6233333333333,0.03948043168868726,2420,0.05244831338411317,4.0,0.75
123,Kung Fu Little Steamed Buns Ramen,$$,3.5,10019.0,40.761628663416204,-73.9868181646996,713,48,22,1279.75,0.16127296881907707,7130,0.15495103373231775,3.5,0.625
124,S Wan Cafe,$,4.0,10002.0,40.717290000000006,-73.99269,75,228,4,-59.5,0.02467887046669021,750,0.016104461371055496,4.0,0.75
125,Hot Kitchen,$$,3.5,10003.0,40.72741,-73.9881599,368,49,0,549.4971428571428,0.08679230382696734,3680,0.07986942328618063,3.5,0.625
126,Nyonya,$$,4.0,10013.0,40.7190148,-73.9968228,1649,221,10,3141.6233333333334,0.35117097831171823,16490,0.35865070729053317,4.0,0.75
127,Super Taste,$,4.0,10002.0,40.715109999999996,-73.99332,421,225,3,286.5,0.059968441517596206,4210,0.09140369967355821,4.0,0.75
128,China North Dumpling,$,4.0,10002.0,40.715827000000004,-73.98984499999999,252,203,5,117.5,0.04273162791180686,2520,0.054624591947769315,4.0,0.75
129,Great NY Noodle Town,$,3.5,10013.0,40.7150363828814,-73.9971172437072,1020,225,0,863.6233333333333,0.11883097006326779,10200,0.2217627856365615,3.5,0.625
130,108 Food Dried Hot Pot,$$,3.5,10025.0,40.80271,-73.96738,48,23,3,-49.00333333333333,0.02574945677920758,480,0.010228509249183896,3.5,0.625
131,Shanghai Asian Cuisine,$$,4.0,10013.0,40.7159077,-73.997383,365,225,0,573.6233333333333,0.08925300588765295,3650,0.07921653971708378,4.0,0.75
132,Ramen Thukpa,$$,4.0,10014.0,40.7319755554199,-74.0039749145508,166,24,8,25.533636363636333,0.03335170443250365,1660,0.035908596300326445,4.0,0.75
133,Dumpling Kingdom,$,3.5,10012.0,40.729650299999996,-73.99955770000001,166,29,3,-32.73307692307691,0.027408908714485623,1660,0.035908596300326445,3.5,0.625
134,Kung Fu Little Steamed Buns Ramen,$$,3.0,10022.0,40.7592514705491,-73.96942947059871,189,40,13,200.873,0.0512350886263363,1890,0.040914036996735584,3.0,0.5
135,Dong Chun Hong,$$,3.5,10001.0,40.7470559,-73.985959,228,52,10,339.6877777777778,0.06539322146825716,2280,0.04940152339499456,3.5,0.625
136,Hunan Delight,$$,3.5,10075.0,40.770678000000004,-73.951296,153,21,0,170.79,0.04816683381152587,1530,0.033079434167573446,3.5,0.625
137,Taste Good,$,3.5,10010.0,40.743383671873396,-73.9901636441803,69,38,20,-0.5875000000000057,0.030687531895986452,690,0.014798694232861806,3.5,0.625
138,Lin's Gourmet,$,3.5,10022.0,40.759890999999996,-73.965187,44,38,4,-133.127,0.017169433334421263,440,0.009357997823721436,3.5,0.625
139,Legend Bar & Restaurant,$$,3.0,10011.0,40.73956,-73.99918000000001,282,24,32,419.13,0.07349577044384378,2820,0.06115342763873776,3.0,0.5
140,Hop Lee Restaurant,$$,4.0,10013.0,40.714259999999996,-73.99849,219,219,0,281.62333333333333,0.05947105575220627,2190,0.04744287268770402,4.0,0.75
141,Ho Yip Restaurant,$,3.5,10006.0,40.70967720000001,-74.0120047,220,26,36,122.5,0.043241592811386426,2200,0.04766050054406964,3.5,0.625
142,Wo Hop,$$,3.5,10013.0,40.714223903458205,-73.9988691693115,1058,219,0,1959.6233333333332,0.23061527605110874,10580,0.23003264417845484,3.5,0.625
143,Hop Won Restaurant,$,3.0,10017.0,40.7533111572266,-73.9739227294922,121,48,5,45.849999999999994,0.035423830900831677,1210,0.026115342763873776,3.0,0.5
144,Uncle Luoyang,$$,3.5,10025.0,40.80023,-73.96625999999999,79,23,5,12.99666666666667,0.0320730215339942,790,0.016974972796517954,3.5,0.625
145,Hong Kong Chinese Restaurant,$,3.5,10016.0,40.7444,-73.98146,28,59,16,-31.922500000000007,0.027491581870321306,280,0.0058759521218716,3.5,0.625
146,Canteen 82,$$,3.0,10024.0,40.78406,-73.97354,180,15,2,223.51999999999998,0.053544923642491984,1800,0.038955386289445046,3.0,0.5
147,La Dinastia,$$,3.5,10023.0,40.77833,-73.98021999999999,127,11,4,251.5,0.05639868722053924,1270,0.027421109902067465,3.5,0.625
148,Asian Spicy Curry Pop-up,$,4.5,10013.0,40.715031,-73.99931,109,222,0,-47.376666666666694,0.025915365359870796,1090,0.0235038084874864,4.5,0.875
149,Bo Ky Restaurant,$,3.5,10013.0,40.7158451,-73.9987067,591,225,5,434.62333333333333,0.075075981679341,5910,0.12840043525571274,3.5,0.625
150,RedFarm,$$$,3.5,10014.0,40.7342,-74.00652,546,21,4,1331.5336363636363,0.1665545362026864,5460,0.11860718171926006,3.5,0.625
151,New Double Dragon,$,4.0,10003.0,40.7242431,-73.9881041,46,49,4,-140.50285714285718,0.016417147684987185,460,0.009793253536452665,4.0,0.75
152,New Moon,$$,5.0,10016.0,40.74692,-73.97766,4,50,0,-51.92250000000001,0.02545172227200304,40,0.0006528835690968443,5.0,1.0
153,Hyo Dong Gak,$$,3.5,10001.0,40.750167,-73.986186,341,47,14,565.6877777777778,0.08844363492925356,3410,0.07399347116430903,3.5,0.625
154,Wok City,$,3.0,10023.0,40.7752417820046,-73.98387664539601,64,7,6,61.5,0.037020021036515714,640,0.013710554951033732,3.0,0.5
155,Lili's 57,$$,3.5,10019.0,40.76554,-73.98046,218,27,28,289.75,0.06029991870232292,2180,0.047225244831338414,3.5,0.625
156,Lan Sheng Szechuan Food Restaurant,$$,3.5,10018.0,40.7517141867087,-73.9883603449123,38,45,23,3.7056521739130517,0.031125403279436324,380,0.008052230685527748,3.5,0.625
157,Mr Bing,$$,4.0,10009.0,40.72712,-73.98362,5,50,0,-108.7725,0.019653421363783376,50,0.0008705114254624592,4.0,0.75
158,Sing Kee Seafood Restaurant,$$,4.0,10013.0,40.71555,-73.99672,151,226,0,145.6233333333333,0.04560001048364206,1510,0.03264417845484222,4.0,0.75
159,Home's Kitchen Chinese Restaurant,$$,3.5,10010.0,40.73944,-73.98913,157,40,17,244.4125,0.05567581197538521,1570,0.03394994559303591,3.5,0.625
160,Mei Yu Spring,$,4.0,10002.0,40.7125753536096,-73.99717624707459,40,210,0,-94.5,0.021109116169633246,400,0.008487486398258977,4.0,0.75
161,Sammy's Noodle Shop & Grill,$$,3.5,10011.0,40.73516,-73.99875,381,30,14,617.13,0.09369038046719462,3810,0.08269858541893363,3.5,0.625
162,Hop Kee,$$,4.0,10013.0,40.714416,-73.999023,654,219,0,1151.6233333333332,0.1482049482790508,6540,0.14211099020674647,4.0,0.75
163,Ollie's Noodle Shop & Grille,$$,3.0,10025.0,40.79942,-73.96868,87,25,5,28.99666666666667,0.03370490921264881,870,0.018715995647442873,3.0,0.5
164,Dragon Noodle and Grill,$,4.0,10013.0,40.71744,-74.00024,76,218,15,-80.3766666666667,0.022549597022645657,760,0.01632208922742111,4.0,0.75
165,Shanghai Cafe,$,3.5,10013.0,40.717259999999996,-73.99721,1923,223,7,1766.6233333333332,0.2109306309273375,19230,0.41828073993471165,3.5,0.625
166,A & C Kitchen,$,3.5,10009.0,40.7250407,-73.9779719,22,24,0,-96.7725,0.020877337122774335,220,0.0045701849836779105,3.5,0.625
167,Taiwan Bear House,$,4.0,10013.0,40.7147185237041,-73.99779662180671,216,222,0,59.623333333333306,0.03682861421087352,2160,0.046789989118607184,4.0,0.75
168,Jing Fong,$$,3.0,10024.0,40.7827096147799,-73.9789128775797,61,14,4,-14.480000000000018,0.029270594422504626,610,0.013057671381936888,3.0,0.5
169,Evergreen On 38,$$,3.5,10016.0,40.75051,-73.98192,177,58,1,294.0775,0.060741293322909035,1770,0.03830250272034821,3.5,0.625
170,Chef Yu,$$,3.0,10018.0,40.753574,-73.99188199999999,447,38,23,821.705652173913,0.11455566085065338,4470,0.0970620239390642,3.0,0.5
171,Grand Sichuan Eastern,$$,3.0,10011.0,40.7425,-74.00013,83,21,12,21.129999999999995,0.032902564437310294,830,0.017845484221980415,3.0,0.5
172,Harvest Chinese & Thai Cuisine,$$,3.5,10075.0,40.771812,-73.952659,62,23,0,-11.210000000000008,0.029604111466829657,620,0.013275299238302504,3.5,0.625
173,Xi'an Famous Foods,$,4.0,10013.0,40.715082,-73.997342,768,225,0,611.6233333333333,0.09312873912445765,7680,0.16692056583242654,4.0,0.75
174,Mr Bing,$$,3.5,10021.0,40.7543376550143,-73.976532557234,109,45,13,71.41833333333338,0.038031621408981725,1090,0.0235038084874864,3.5,0.625
175,Asian Eatery,$,3.5,10022.0,40.7615318,-73.96594240000002,46,35,11,-131.127,0.017373419294253088,460,0.009793253536452665,3.5,0.625
176,Ginger's,$$,3.5,10018.0,40.753448,-73.989273,326,48,20,579.705652173913,0.08987335971100237,3260,0.07072905331882481,3.5,0.625
177,Hunan House,$$,2.5,10019.0,40.76292,-73.97653000000001,126,31,14,105.75,0.04153321039779488,1260,0.02720348204570185,2.5,0.375
178,Charley Mom Restaurant,$$,3.5,10028.0,40.77402877807621,-73.9481582641602,65,21,0,-120.0,0.018508295181777455,650,0.013928182807399348,3.5,0.625
179,The Cottage,$$,3.0,10024.0,40.782066815528104,-73.97937993981459,254,14,4,371.52,0.06863988467004715,2540,0.055059847660500545,3.0,0.5
180,Big Bowl,$$,4.0,10128.0,40.78028,-73.9465,36,21,1,-0.5,0.030696456281729095,360,0.007616974972796518,4.0,0.75
181,Spice Saigon,$$,3.5,10065.0,40.7645621771246,-73.9585727685255,116,19,2,24.171428571428578,0.033212768800511695,1160,0.025027203482045703,3.5,0.625
182,Zongzi lady,$,4.5,10002.0,40.7182699448353,-73.99380711365491,11,228,5,-123.5,0.018151319752071758,110,0.002176278563656148,4.5,0.875
183,Fay Da Bakery,$,4.0,10012.0,40.73115,-74.00176,177,26,11,-21.733076923076908,0.028530831493560668,1770,0.03830250272034821,4.0,0.75
184,Mee Noodle Shop,$,3.0,10019.0,40.765370000000004,-73.98791,423,38,0,276.75,0.05897400996341605,4230,0.09183895538628944,3.0,0.5
185,Chinatown Restaurant,$$,3.0,10128.0,40.78286,-73.95125999999999,221,24,3,369.5,0.06843385885061701,2210,0.04787812840043525,3.0,0.5
186,Great Sichuan,$$,3.0,10016.0,40.74082,-73.98127,170,43,0,280.0775,0.05931339160408625,1700,0.0367791077257889,3.0,0.5
187,Shun Lee West,$$$,2.5,10023.0,40.7729,-73.9813485,355,8,6,1062.5,0.13911499393234492,3550,0.07704026115342764,2.5,0.375
188,Xi'an Famous Foods,$$,4.0,10010.0,40.74033,-73.98744,51,43,17,32.412499999999994,0.03405330023321159,510,0.01088139281828074,4.0,0.75
189,Shui Mei Cafe,$,4.5,10002.0,40.7135318,-73.9948386,27,220,0,-107.5,0.019783207430726372,270,0.0056583242655059846,4.5,0.875
190,Cafe Evergreen,$$,3.5,10021.0,40.76891,-73.9556,118,21,2,89.41833333333338,0.039867495047468164,1180,0.02546245919477693,3.5,0.625
191,Buddha Bodai Kosher Vegetarian Restaurant,$$,4.0,10013.0,40.713854299999994,-73.9989484,757,219,0,1357.6233333333332,0.16921550214172895,7570,0.1645266594124048,4.0,0.75
192,Golden City Chinese Restaurant,$,3.5,10001.0,40.753277148143,-73.996643608314,69,27,11,-47.31222222222222,0.025921938240798716,690,0.014798694232861806,3.5,0.625
193,Mr Chow,$$$$,3.0,10022.0,40.7588502019644,-73.9643376320601,266,38,0,886.873,0.12120227284865281,2660,0.05767138193688792,3.0,0.5
194,Tim Ho Wan,$$,3.5,10003.0,40.731505,-73.9899313,802,51,13,1417.4971428571428,0.17532221039398008,8020,0.17431991294885746,3.5,0.625
195,Kong Kee,$,4.0,10002.0,40.719046999999996,-73.996139,43,223,5,-91.5,0.021415095109380985,430,0.009140369967355821,4.0,0.75
196,Wok Express,$,4.0,10035.0,40.798202,-73.939417,10,13,4,-64.39,0.024180124794901395,100,0.001958650707290533,4.0,0.75
197,Shun Lee Palace,$$$,3.0,10022.0,40.75945,-73.96907,227,40,9,503.873,0.08213896154085804,2270,0.049183895538628945,3.0,0.5
198,Kungfu Kitchen,$$,3.0,10018.0,40.7555654203146,-73.9907654374838,134,45,13,195.70565217391305,0.050708055423291674,1340,0.02894450489662677,3.0,0.5
199,Lilli & Loo,$$,3.5,10065.0,40.763858,-73.96726899999999,322,32,16,436.1714285714286,0.07523387652586797,3220,0.06985854189336235,3.5,0.625
200,King Wok,$,3.5,10014.0,40.7289734,-74.0050888,105,24,9,-201.46636363636367,0.010199297991591328,1050,0.022633297062023938,3.5,0.625
201,Chinese Fast Wok - Eat In & Take Out,$,3.0,10011.0,40.74452,-73.9957,52,24,21,-92.87,0.021275364726896184,520,0.011099020674646356,3.0,0.5
202,Taste Kitchen,$,4.5,10018.0,40.753640000000004,-73.9935,3,34,16,-69.29434782608695,0.023679915745574653,30,0.0004352557127312296,4.5,0.875
203,Cheung Wong Kitchen,$,4.0,10002.0,40.7160260528326,-73.99182088673109,27,224,6,-107.5,0.019783207430726372,270,0.0056583242655059846,4.0,0.75
204,Tang's Garden,$$,3.0,10021.0,40.772257399999994,-73.9589547,82,19,8,17.41833333333338,0.03252400049352241,820,0.0176278563656148,3.0,0.5
205,New Kam Lai,$,3.5,10025.0,40.7989112,-73.967015,18,26,5,-127.00333333333333,0.017794004345766345,180,0.0036996735582154514,3.5,0.625
206,Lumos Bar,$$,4.5,10012.0,40.72728,-73.9999,69,27,0,-60.73307692307691,0.02455310527684005,690,0.014798694232861806,4.5,0.875
207,Jimmy's House,$,3.5,10010.0,40.740159999999996,-73.98255999999999,82,37,3,12.412499999999994,0.03201344063489333,820,0.0176278563656148,3.5,0.625
208,DIM SUM VIP,$,4.0,10013.0,40.71614,-73.9979,74,225,5,-82.3766666666667,0.022345611062813832,740,0.01588683351468988,4.0,0.75
209,Bite of Hong Kong 泰仁軒,$$,4.0,10002.0,40.717400700000006,-73.99436999999999,58,227,4,-18.5,0.028860582643242656,580,0.012404787812840044,4.0,0.75
210,Jue Lan Club,$$$,3.0,10011.0,40.7409694,-73.9934031,181,26,11,398.13,0.0713539178656096,1810,0.03917301414581066,3.0,0.5
211,Wong Restaurant,$,3.0,10065.0,40.7638749,-73.9590615,36,20,0,-171.82857142857142,0.013222144736992694,360,0.007616974972796518,3.0,0.5
212,La Caridad 78,$$,3.5,10024.0,40.7832592,-73.9807337,175,14,4,213.51999999999998,0.052524993843332854,1750,0.037867247007616976,3.5,0.625
213,Lychee House,$$,3.5,10022.0,40.7595977783203,-73.96942138671879,113,40,9,48.87299999999999,0.03573215567911748,1130,0.024374319912948857,3.5,0.625
214,Forever Taste,$,4.0,10002.0,40.71294,-73.989784,24,173,4,-110.5,0.019477228490978632,240,0.00500544069640914,4.0,0.75
215,China Taste,$,3.0,10028.0,40.774955908372704,-73.9537757635117,53,25,1,-197.0,0.010654835728252134,530,0.011316648531011969,3.0,0.5
216,East Garden Chinese Restaurant,$,3.5,10128.0,40.777931200000005,-73.94902040000001,37,23,3,-35.5,0.027126701984672128,370,0.007834602829162133,3.5,0.625
217,Legend Upper West,$$,3.0,10025.0,40.803004726767504,-73.96592751145359,116,24,3,86.99666666666667,0.03962050204777179,1160,0.025027203482045703,3.0,0.5
218,Tung Woo Co,$,4.0,10013.0,40.71865,-73.99499,60,227,5,-96.3766666666667,0.020917709343991044,600,0.012840043525571273,4.0,0.75
219,Mr Chow,$$$$,3.0,10013.0,40.7200922292321,-74.0086623709058,309,22,9,1079.6233333333332,0.14086145372510506,3090,0.06702937976060935,3.0,0.5
220,Uncle Luoyang,$,4.0,10027.0,40.809970899999996,-73.96235300000001,26,8,5,-34.0,0.027279691454546,260,0.00544069640914037,4.0,0.75
221,Mee Noodle Shop & Grill,$$,3.0,10003.0,40.730968,-73.983215,95,54,4,3.497142857142819,0.031104136792878698,950,0.020457018498367792,3.0,0.5
222,Macao,$$$,4.0,10013.0,40.71962,-74.00391,622,134,20,1709.6233333333332,0.20511703107213042,6220,0.13514689880304678,4.0,0.75
223,Panda Banjum,$,3.5,10001.0,40.7472085,-73.98618359999999,107,50,11,-9.312222222222218,0.02979767147760342,1070,0.02306855277475517,3.5,0.625
224,No.1 Chinese Restaurant,$$,3.0,10004.0,40.7046671846472,-74.0105490435282,128,19,19,191.76666666666665,0.05030630655356202,1280,0.02763873775843308,3.0,0.5
225,MoonHouse,$,3.5,10029.0,40.788337,-73.947502,76,26,2,22.725714285714282,0.03306531609240469,760,0.01632208922742111,3.5,0.625
226,Taiwan Pork Chop House,$,4.0,10013.0,40.7142303,-73.99796090000001,245,220,0,88.6233333333333,0.03978641062843501,2450,0.053101196953210014,4.0,0.75
227,Mission Chinese,$$,3.0,10002.0,40.71386,-73.98966,533,186,4,931.5,0.12575391356336027,5330,0.11577801958650707,3.0,0.5
228,Christopher's Golden Woks,$,3.5,10014.0,40.73284,-74.00836,43,15,0,-263.46636363636367,0.003875733236804705,430,0.009140369967355821,3.5,0.625
229,Manting,$$,3.0,10019.0,40.7601476826859,-73.9829980954528,104,45,32,61.75,0.037045519281494695,1040,0.022415669205658323,3.0,0.5
230,New Sunny East 88,$,3.5,10128.0,40.777900695800795,-73.9482650756836,49,22,3,-23.5,0.028350617743663088,490,0.01044613710554951,3.5,0.625
231,Chop Shop,$$,3.5,10001.0,40.7486687,-74.0031128,198,18,0,279.6877777777778,0.05927364267330236,1980,0.042872687704026115,3.5,0.625
232,Big Wong,$,3.5,10013.0,40.71624,-73.99842,1193,225,6,1036.6233333333332,0.1364757555887208,11930,0.25941240478781286,3.5,0.625
233,Wu's Wonton King,$$,3.5,10002.0,40.7139415501646,-73.9899386554248,97,189,4,59.5,0.03681603507668389,970,0.02089227421109902,3.5,0.625
234,Philippe By Philippe Chow,$$$,3.5,10065.0,40.76409,-73.97039000000001,497,26,12,1283.1714285714286,0.16162193051464652,4970,0.10794341675734494,3.5,0.625
235,Jef Chinese,$$,3.5,10017.0,40.754203100000005,-73.9694108,8,34,0,-59.150000000000006,0.02471456800966078,80,0.0015233949945593036,3.5,0.625
236,Traditional Chinese Food Cart,,4.0,10014.0,40.729372399999995,-73.995937,7,38,5,-288.96636363636367,0.001274912248948916,70,0.0013057671381936887,4.0,0.75
237,King Food Chen,$,3.0,10024.0,40.785959999999996,-73.97589,48,17,4,-88.48000000000002,0.02172311390872704,480,0.010228509249183896,3.0,0.5
238,Chelsea Golden Wok,$,3.0,10011.0,40.744009999999996,-73.999824,36,22,7,-108.87,0.01964347704824157,360,0.007616974972796518,3.0,0.5
239,New Aroma Chinese Restaurant,$,3.5,10027.0,40.8132171630859,-73.95570373535159,25,11,2,-35.0,0.027177698474630085,250,0.005223068552774755,3.5,0.625
240,Happy Express Cafe,$,4.0,10002.0,40.7145133,-73.99244509999998,30,221,4,-104.5,0.02008918637047411,300,0.006311207834602829,4.0,0.75
241,Pearls,$$,3.0,10025.0,40.7958833,-73.9692167,125,26,2,104.99666666666667,0.04145637568625823,1250,0.026985854189336234,3.0,0.5
242,Jian Bing Man,$$,3.0,10001.0,40.747609999999995,-73.98631,85,50,12,53.68777777777778,0.03622322921230595,850,0.018280739934711642,3.0,0.5
243,Great Wall Chinese,$,3.5,10002.0,40.7165,-73.98763000000001,69,116,7,-65.5,0.02406691258719473,690,0.014798694232861806,3.5,0.625
244,Fei Ma,$,3.5,10009.0,40.725114000000005,-73.9845239,37,45,0,-81.7725,0.022407231821513034,370,0.007834602829162133,3.5,0.625
245,Shu Han Ju II,$$,4.0,10003.0,40.73117,-73.98909,39,54,12,-108.50285714285718,0.01968092304229641,390,0.008269858541893362,4.0,0.75
246,Jiangnan Chinese Cuisine,$$,3.0,10006.0,40.70838,-74.01408,6,21,26,-85.5,0.022027052988876465,60,0.001088139281828074,3.0,0.5
247,Noodles 28,$$,3.0,10016.0,40.7426109313965,-73.9799728393555,166,45,0,272.0775,0.058497447764758945,1660,0.035908596300326445,3.0,0.5
248,Six Happiness,$,3.0,10021.0,40.7700042724609,-73.95782470703121,101,22,2,-45.58166666666662,0.026098442758819868,1010,0.02176278563656148,3.0,0.5
249,East Palace,$,3.0,10017.0,40.7510528564453,-73.97166442871091,67,36,3,-8.150000000000006,0.02991620998537236,670,0.014363438520130577,3.0,0.5
250,China Wok,$,4.0,10037.0,40.812499746680295,-73.9418902248144,11,8,4,-26.0,0.028095635293873305,110,0.002176278563656148,4.0,0.75
251,Peking Garden,$,3.5,10027.0,40.81501,-73.95929699999999,25,8,4,-35.0,0.027177698474630085,250,0.005223068552774755,3.5,0.625
252,69 Chinese Restaurant,$,3.5,10013.0,40.715423,-73.998397,315,226,1,158.6233333333333,0.046925919222548934,3150,0.06833514689880305,3.5,0.625
253,The Chinese Couple Vendor aka The Dollar Cart!,$,4.5,10013.0,40.7165422558221,-73.9969864385006,44,224,1,-112.3766666666667,0.019285821665336433,440,0.009357997823721436,4.5,0.875
254,Fu Zhou Cuisine,$,4.0,10002.0,40.71837,-73.99133,14,220,10,-120.5,0.018457298691819498,140,0.0028291621327529923,4.0,0.75
255,Modern Szechuan,$,3.0,10036.0,40.7559013,-73.9800568,11,34,10,-56.32555555555557,0.02500264151515661,110,0.002176278563656148,3.0,0.5
256,Hong Man,$,4.0,10002.0,40.71516,-73.99374,126,225,1,-8.5,0.029880512442401787,1260,0.02720348204570185,4.0,0.75
257,New King Wok Restaurant,$,4.0,10027.0,40.806563347578,-73.9499093592167,5,10,0,-55.0,0.02513783887631182,50,0.0008705114254624592,4.0,0.75
258,Kam-Wei Kitchen,$,3.5,10036.0,40.76128,-73.99391899999999,28,36,0,-39.32555555555557,0.02673652217372714,280,0.0058759521218716,3.5,0.625
259,New Hong Kong Restaurant,$,4.5,10035.0,40.8001850545406,-73.9404103159904,4,14,4,-70.39,0.023568166915405916,40,0.0006528835690968443,4.5,0.875
260,China King,$,3.0,10010.0,40.738303810358,-73.9834597706795,27,46,4,-42.587500000000006,0.026403826739518094,270,0.0056583242655059846,3.0,0.5
261,Lava Kitchen,$$,3.0,10025.0,40.797339862853896,-73.9692374467538,38,27,5,-69.00333333333333,0.023709597180889313,380,0.008052230685527748,3.0,0.5
262,China King,$,3.5,10029.0,40.7943,-73.94456,18,29,4,-35.27428571428572,0.02714972325728172,180,0.0036996735582154514,3.5,0.625
263,La Nueva Victoria,$$,3.5,10025.0,40.79372,-73.971954,60,17,6,-25.00333333333333,0.0281972882971895,600,0.012840043525571273,3.5,0.625
264,Rice Noodle Cart,$,4.5,10013.0,40.71792,-74.00021,44,216,15,-112.3766666666667,0.019285821665336433,440,0.009357997823721436,4.5,0.875
265,China Chalet,$$,3.0,10006.0,40.7065032987417,-74.012940146627,125,19,44,152.5,0.046301382208863824,1250,0.026985854189336234,3.0,0.5
266,Wing Kee WK Restaurant,$,4.0,10013.0,40.715423,-73.998397,31,226,1,-125.3766666666667,0.01795991292642956,310,0.006528835690968444,4.0,0.75
267,Panda Express,$,3.5,10021.0,40.765817233247795,-73.95777292549609,69,18,2,-77.58166666666662,0.022834667401510644,690,0.014798694232861806,3.5,0.625
268,Empire,$,3.5,10039.0,40.8028688256819,-73.9530954451981,17,10,8,-35.705,0.027105793423789368,170,0.003482045701849837,3.5,0.625
269,Carol's Bun,$,4.0,10002.0,40.7138317002555,-73.9914554524045,18,208,4,-116.5,0.018865270611483152,180,0.0036996735582154514,4.0,0.75
270,Dumpling Man,$,3.5,10009.0,40.727129999999995,-73.98476,718,50,0,599.2275,0.09186445114424997,7180,0.1560391730141458,3.5,0.625
271,Jing Fong Restaurant,$$,3.5,10013.0,40.7159552385198,-73.99718310762059,1824,225,0,3491.6233333333334,0.3868685212822879,18240,0.39673558215451576,3.5,0.625
272,Drunken Dumpling,$$,3.5,10003.0,40.7279305523596,-73.9851133525372,202,51,0,217.49714285714282,0.05293063449488414,2020,0.043743199129488576,3.5,0.625
273,New Asian Cuisine,$,4.0,10013.0,40.71792,-74.00021,16,216,15,-140.3766666666667,0.01643001822769086,160,0.003264417845484222,4.0,0.75
274,Hunan Park,$$,3.0,10025.0,40.79222,-73.96774,58,17,3,-29.00333333333333,0.027789316377525845,580,0.012404787812840044,3.0,0.5
275,New Ming's Delight,$,3.0,10016.0,40.7488403320312,-73.976203918457,46,41,4,-13.922500000000007,0.029327455508807745,460,0.009793253536452665,3.0,0.5
276,Nom Wah Nolita,$$,3.5,10012.0,40.7204154878855,-73.9944789558649,92,209,7,-14.733076923076908,0.02924478235297206,920,0.019804134929270946,3.5,0.625
277,New Kam Lai,$,3.0,10024.0,40.787009999999995,-73.975899,40,18,5,-96.48000000000002,0.020907170069399735,400,0.008487486398258977,3.0,0.5
278,Ocean Dragon,$,2.5,10019.0,40.769439697265604,-73.9886703491211,55,20,0,-91.25,0.021440593354359962,550,0.0117519042437432,2.5,0.375
279,J East,$,3.0,10003.0,40.7347984313965,-73.9857635498047,55,52,5,-131.50285714285718,0.017335084504230405,550,0.0117519042437432,3.0,0.5
280,DiDi Dumpling,$,3.5,10010.0,40.740153899999996,-73.9845239,136,46,9,66.4125,0.03752106155035265,1360,0.029379760609358,3.5,0.625
281,East Dumpling,$,4.5,10002.0,40.71586,-73.99288,37,227,5,-97.5,0.020803137229885506,370,0.007834602829162133,4.5,0.875
282,China 1 Kitchen,$,2.5,10044.0,40.7632023290684,-73.9490040654764,43,1,0,40.5,0.03487816845828154,430,0.009140369967355821,2.5,0.375
283,Lotus Express,$,4.0,10034.0,40.866264343261705,-73.9245986938477,40,2,9,37.5,0.034572189518533795,400,0.008487486398258977,4.0,0.75
284,Little Sheep Mongolian Hot Pot,$$,4.0,10002.0,40.71759,-73.99489,120,228,4,105.5,0.0415077121528159,1200,0.02589771490750816,4.0,0.75
285,China Gourmet,$,2.5,10019.0,40.76381,-73.98524,166,48,17,19.75,0.03276181412502634,1660,0.035908596300326445,2.5,0.375
286,Ollie's To Go,$$,2.5,10024.0,40.7904902,-73.9752417,114,17,5,91.51999999999998,0.04008185029359143,1140,0.024591947769314473,2.5,0.375
287,Wonton Noodle Garden,$,3.5,10013.0,40.7157921,-73.998189,295,226,2,138.6233333333333,0.04488605962423067,2950,0.06398258977149075,3.5,0.625
288,Shanghai Sogo,$$,3.5,10036.0,40.757195,-73.98043100000001,11,38,15,-45.32555555555557,0.02612456429423166,110,0.002176278563656148,3.5,0.625
289,China Wok,$,3.0,10009.0,40.72283,-73.98311,45,32,0,-73.7725,0.02322317566084034,450,0.009575625680087052,3.0,0.5
290,Red Egg,$$,3.5,10013.0,40.7188628921887,-73.9990730951065,674,215,15,1191.6233333333332,0.15228466747568734,6740,0.14646354733405875,3.5,0.625
291,Halal Kitchen,$,3.5,10029.0,40.793049850767204,-73.9408185787398,11,26,0,-42.27428571428572,0.026435772397870327,110,0.002176278563656148,3.5,0.625
292,Fresh Wok,$,3.5,10128.0,40.78065,-73.94698000000001,26,22,2,-46.5,0.026004779205597083,260,0.00544069640914037,3.5,0.625
293,Peking Kitchen II,$,3.5,10026.0,40.804790000000004,-73.954735,17,12,4,-40.0,0.02666773357505052,170,0.003482045701849837,3.5,0.625
294,August Gatherings,$$,3.5,10013.0,40.718655600000005,-74.00110040000001,118,202,15,79.6233333333333,0.038868473809191784,1180,0.02546245919477693,3.5,0.625
295,Hunan Chen's Kitchen,$,3.0,10025.0,40.80133,-73.96113000000001,34,24,3,-111.00333333333333,0.019425892024420955,340,0.007181719260065288,3.0,0.5
296,Famous Sichuan,$$,3.5,10013.0,40.71487,-73.99758,272,224,0,387.62333333333333,0.07028231162329308,2720,0.05897714907508161,3.5,0.625
297,Hong Kong,$$,3.5,10029.0,40.7926783064322,-73.9457814748688,10,28,6,-33.27428571428572,0.027353709217113546,100,0.001958650707290533,3.5,0.625
298,A A JING,$$,3.5,10036.0,40.761996999999994,-73.990409,244,39,4,420.6744444444444,0.07365329293504724,2440,0.0528835690968444,3.5,0.625
299,Northern Tiger,$$,3.0,10281.0,40.7126462901984,-74.01601105410609,84,16,0,165.5,0.0476272909477707,840,0.018063112078346027,3.0,0.5
300,Yip's,$,3.5,10004.0,40.704817999999996,-74.01238199999999,77,18,39,12.766666666666666,0.03204956314861354,770,0.016539717083786723,3.5,0.625
301,Pic Up Stix,$,3.0,10128.0,40.7824593,-73.95361329999999,50,24,0,-22.5,0.028452610723579002,500,0.010663764961915125,3.0,0.5
302,Mimi Cheng's Dumplings,$$,3.5,10003.0,40.7305254,-73.986285,478,54,6,769.4971428571428,0.10923075940846827,4780,0.10380848748639826,3.5,0.625
303,Bao Bao Cafe,$,4.0,10010.0,40.740829,-73.983474,291,47,14,221.4125,0.053329973437319204,2910,0.06311207834602829,4.0,0.75
304,Vanessa's Dumpling,$,3.5,10003.0,40.732666015625,-73.986442565918,913,58,6,726.4971428571428,0.104845061272084,9130,0.1984766050054407,3.5,0.625
305,Wok Chi - Stir Fry Kitchen,$$,3.5,10022.0,40.759222265359796,-73.96839983761309,28,37,8,-121.12700000000001,0.018393349093412222,280,0.0058759521218716,3.5,0.625
306,38 Yummy Kitchen,$,4.0,10002.0,40.7160297577504,-73.991725333035,18,223,6,-116.5,0.018865270611483152,180,0.0036996735582154514,4.0,0.75
307,Our Place China Chalet,$$,3.0,10075.0,40.7733383,-73.95580290000001,33,22,1,-69.21000000000001,0.023688518631706693,330,0.006964091403699674,3.0,0.5
308,Nanjing,$$,3.5,10019.0,40.7626659,-73.9847093,41,48,24,-64.25,0.02419440381208962,410,0.008705114254624592,3.5,0.625
309,Wa Lung Kitchen,$,3.0,10002.0,40.713919,-73.980251,38,7,0,-96.5,0.020905130209801417,380,0.008052230685527748,3.0,0.5
310,Yoan Ming Garden,$,2.5,10029.0,40.788129999999995,-73.95315,30,16,2,-23.274285714285718,0.02837363901627268,300,0.006311207834602829,2.5,0.375
311,Bei Jing Chinese Foods,$,3.0,10019.0,40.768619,-73.98850999999999,11,26,0,-135.25,0.01695290223805978,110,0.002176278563656148,3.0,0.5
312,The China Star,$,3.0,10003.0,40.7278197743735,-73.98510932922359,47,51,0,-139.50285714285718,0.0165191406649031,470,0.01001088139281828,3.0,0.5
313,Son Ja Jang,$$,3.0,10001.0,40.747684,-73.987358,26,44,15,-64.31222222222222,0.024188057582228188,260,0.00544069640914037,3.0,0.5
314,West Place,$,3.0,10027.0,40.8116266876459,-73.95761199295521,43,11,0,-17.0,0.029013572113116524,430,0.009140369967355821,3.0,0.5
315,La Unica Caridad Restaurant,$$,4.0,10024.0,40.7832742,-73.98072370000001,5,14,4,-126.48000000000002,0.017847380671922337,50,0.0008705114254624592,4.0,0.75
316,Potluck,$$,3.0,10001.0,40.746761,-73.9957166,50,28,21,-16.312222222222218,0.029083720618192026,500,0.010663764961915125,3.0,0.5
317,Cha Chan Tang,$,3.5,10013.0,40.7153,-73.99896,815,222,1,658.6233333333333,0.09792240918050557,8150,0.17714907508161046,3.5,0.625
318,New Golden Chopstick Chinese Restaurant,$,3.0,10004.0,40.704040500000005,-74.0104675,28,19,21,-36.233333333333334,0.02705190713273379,280,0.0058759521218716,3.0,0.5
319,Yiwanmen,$,3.5,10013.0,40.7193132739237,-73.9962630421457,52,220,6,-104.3766666666667,0.02010176550466374,520,0.011099020674646356,3.5,0.625
320,New Chinatown Restaurant of New York,$,4.0,10009.0,40.720527000000004,-73.978652,9,13,0,-109.7725,0.01955142838386746,90,0.0017410228509249185,4.0,0.75
321,Peking Duck House,$$$,3.5,10013.0,40.71464,-73.99856,661,222,0,1826.6233333333332,0.21705020972229228,6610,0.14363438520130578,3.5,0.625
322,New Kam Lai Chinese,$,2.5,10025.0,40.793085,-73.9712575,41,18,6,-104.00333333333333,0.02013984288383235,410,0.008705114254624592,2.5,0.375
323,Shun Cheong Chinese Kitchen,,5.0,10026.0,40.7975311,-73.9491501,1,13,2,-54.5,0.025188835366269775,10,0.0,5.0,1.0
324,Lee Chung Cafe,$,4.0,10002.0,40.711925,-73.99632199999999,16,202,0,-118.5,0.018661284651651327,160,0.003264417845484222,4.0,0.75
325,Mee Sum Cafe,$,3.5,10013.0,40.715045,-73.99829100000001,17,225,0,-139.3766666666667,0.016532011207606775,170,0.003482045701849837,3.5,0.625
326,Lemon Leaves,$$,3.0,10005.0,40.70883,-74.00926,27,26,43,51.5,0.036000091237356584,270,0.0056583242655059846,3.0,0.5
327,New Wong Rest,$,4.0,10002.0,40.7135887,-73.9931488,34,216,4,-100.5,0.020497158290137766,340,0.007181719260065288,4.0,0.75
328,New China House,$$$$,4.0,10029.0,40.795303000000004,-73.9486,2,15,0,-45.27428571428572,0.026129793458122587,20,0.0002176278563656148,4.0,0.75
329,Asian Gourmet,$,3.0,10029.0,40.7867732,-73.95011650000001,28,24,4,-25.274285714285718,0.02816965305644085,280,0.0058759521218716,3.0,0.5
330,Our Place Tea Garden,$$,3.5,10022.0,40.75947,-73.96942,34,40,10,-109.12700000000001,0.01961726485240318,340,0.007181719260065288,3.5,0.625
331,Five Luck Restaurant,$,2.5,10128.0,40.78326,-73.947448,23,28,4,-49.5,0.025698800265849343,230,0.004787812840043526,2.5,0.375
332,18th St Bamboo Garden,$,3.5,10003.0,40.73625,-73.98535,7,49,0,-179.50285714285718,0.012439421468266567,70,0.0013057671381936887,3.5,0.625
333,La Preciosa China Restaurant,$$,3.0,10029.0,40.798590000000004,-73.94081,19,15,4,-15.274285714285718,0.029189582855599985,190,0.003917301414581066,3.0,0.5
334,Radiance Noodle Bar,$,3.0,10022.0,40.755466,-73.970861,14,37,16,-163.127,0.014109643936943863,140,0.0028291621327529923,3.0,0.5
335,No 1 Chinese Restaurant,$,2.5,10003.0,40.732437,-73.982139,31,49,4,-155.50285714285718,0.014887252986248486,310,0.006528835690968444,2.5,0.375
336,Hong Garden,$,3.0,10039.0,40.821929931640604,-73.9383544921875,7,5,5,-45.705,0.026085863624630234,70,0.0013057671381936887,3.0,0.5
337,XO Kitchen,$,3.5,10013.0,40.71744963526729,-73.9960413426161,420,226,3,263.62333333333333,0.05763518211371983,4200,0.0911860718171926,3.5,0.625
338,Mimi Cheng's Nolita,$$,3.5,10013.0,40.72048,-73.99646,82,205,6,7.623333333333306,0.03152497925524603,820,0.0176278563656148,3.5,0.625
339,Fusion Grills,$,3.0,10022.0,40.757217,-73.969192,29,39,16,-148.127,0.015639538635682564,290,0.006093579978237214,3.0,0.5
340,Wong Kee Restaurant,$,3.5,10013.0,40.7172623132685,-73.9974051479728,331,223,9,174.6233333333333,0.04855780690120355,3310,0.07181719260065289,3.5,0.625
341,The Flying Pig Jianbing,$,3.0,10036.0,40.757394700000006,-73.9822584,30,43,19,-37.32555555555557,0.026940508133558964,300,0.006311207834602829,3.0,0.5
342,Char Sue,$$,4.5,10002.0,40.7196000924977,-73.9879152551293,86,112,6,37.5,0.034572189518533795,860,0.018498367791077257,4.5,0.875
343,Mr. Deng's,,5.0,10001.0,40.753391265869105,-73.9957733154297,1,29,16,-113.81222222222222,0.019139405076390482,10,0.0,5.0,1.0
344,Empire Corner II,$,3.0,10029.0,40.800399,-73.946281,14,14,0,-39.27428571428572,0.026741751337618067,140,0.0028291621327529923,3.0,0.5
345,New Dynasty Chinese Restaurant,$,2.5,10001.0,40.749512,-73.995766,17,30,7,-99.31222222222222,0.020618303285171224,170,0.003482045701849837,2.5,0.375
346,Ling Kee Beef Jerky,$,4.5,10002.0,40.714659999999995,-73.99148000000001,126,217,4,-8.5,0.029880512442401787,1260,0.02720348204570185,4.5,0.875
347,Hung Chow Restaurant,,4.0,10035.0,40.8027,-73.93688,1,6,5,-71.89,0.023415177445532044,10,0.0,4.0,0.75
348,H K Wonton Garden,$,3.5,10013.0,40.716430700000004,-73.9991302,680,221,8,523.6233333333333,0.08415335689185728,6800,0.14776931447225244,3.5,0.625
349,J.J. Noodle Restaurant,$,3.5,10002.0,40.712872445583294,-73.99681851267809,32,214,0,-102.5,0.020293172330305937,320,0.006746463547334059,3.5,0.625
350,New China Red,$,2.5,10007.0,40.715022999999995,-74.008636,27,39,23,-43.0,0.02636175463530278,270,0.0056583242655059846,2.5,0.375
351,Fairview Chinese Restaurant,$,4.5,7022.0,40.81084,-74.00097,132,1,0,129.5,0.04395554367079782,1320,0.028509249183895538,4.5,0.875
352,Hop Shing Restaurant,$,3.5,10038.0,40.7139511,-73.99801640000001,438,218,0,388.5,0.07037172546901936,4380,0.09510337323177366,3.5,0.625
353,Ming's Caffe,$,3.5,10002.0,40.714321000000005,-73.990509,86,201,4,-48.5,0.025800793245765254,860,0.018498367791077257,3.5,0.625
354,Great Wok,$,3.5,10029.0,40.790302000000004,-73.947349,9,27,2,-44.27428571428572,0.0262317864380385,90,0.0017410228509249185,3.5,0.625
355,Food King,$,4.0,10002.0,40.711727,-73.99401800000001,5,194,0,-129.5,0.01753936187257628,50,0.0008705114254624592,4.0,0.75
356,99 Favor Taste,$$,4.0,10002.0,40.717745,-73.992537,1172,228,5,2209.5,0.2561009418958975,11720,0.2548422198041349,4.0,0.75
357,Steak & Hoagies,$,3.5,10029.0,40.796352,-73.947189,14,17,4,-39.27428571428572,0.026741751337618067,140,0.0028291621327529923,3.5,0.625
358,Sachi Asian Bistro,$$,4.0,10016.0,40.7477989,-73.97406009999999,149,36,0,238.0775,0.055029686447617895,1490,0.03220892274211099,4.0,0.75
359,Six Happiness,$,2.5,10016.0,40.747611999511705,-73.9742126464844,95,36,0,35.07749999999999,0.0343251115246875,950,0.020457018498367792,2.5,0.375
360,Chong Qing Xiao Mian,$$,4.0,10019.0,40.76507,-73.98739,141,38,4,135.75,0.04459299979527228,1410,0.030467899891186073,4.0,0.75
361,Fu Wing Chinese Restaurant,$,3.0,10029.0,40.792308,-73.945686,12,27,6,-41.27428571428572,0.02653776537778624,120,0.002393906420021763,3.0,0.5
362,China Moon,$$,2.0,10017.0,40.75653,-73.97768,89,48,0,102.85,0.04123743075603874,890,0.019151251360174103,2.0,0.25
363,88 Chinese Restaurant,$,3.0,10037.0,40.813359915489706,-73.9418023908753,12,8,4,-25.0,0.02819762827378922,120,0.002393906420021763,3.0,0.5
364,Go Noodle Nine Moon,$,2.5,10022.0,40.75932,-73.96254,43,32,0,-134.127,0.01706744035450535,430,0.009140369967355821,2.5,0.375
365,City One Restaurant,$$,3.5,10030.0,40.8225557826076,-73.94196029622249,12,5,4,-18.28,0.02888302109882416,120,0.002393906420021763,3.5,0.625
366,Hou Yi Hot Pot,$$,4.0,10003.0,40.72732,-73.98902,86,49,0,-14.50285714285718,0.02926826315439226,860,0.018498367791077257,4.0,0.75
367,Asian 83,,2.5,10028.0,40.77626,-73.95326899999999,16,28,4,-210.0,0.00932892698934526,160,0.003264417845484222,2.5,0.375
368,New Wong Asian Food,$,2.5,10065.0,40.763786524489,-73.9588390469633,10,20,0,-197.82857142857142,0.010570327259178948,100,0.001958650707290533,2.5,0.375
369,Great Wall Kitchen,$,3.5,10027.0,40.813257470727,-73.9453851431608,5,11,0,-55.0,0.02513783887631182,50,0.0008705114254624592,3.5,0.625
370,Yang's Happy Wok,$,3.5,10009.0,40.726409000000004,-73.977447,8,26,0,-110.7725,0.019449435403951547,80,0.0015233949945593036,3.5,0.625
371,Hua Ji Pork Chop Fast Food,$,4.0,10002.0,40.714809,-73.993072,64,223,3,-70.5,0.023556947687615164,640,0.013710554951033732,4.0,0.75
372,Golden Unicorn,$$,3.5,10002.0,40.7136770496642,-73.997163364418,1353,219,0,2571.5,0.2930224006254581,13530,0.2942328618063112,3.5,0.625
373,ABlue Chinese Restaurant,,4.0,10024.0,40.786266,-73.976448,1,17,5,-133.98000000000002,0.017082433322552985,10,0.0,4.0,0.75
374,Just for Fen,$$,4.5,10003.0,40.7311641211205,-73.9830346405506,29,53,4,-128.50285714285718,0.017641063443978144,290,0.006093579978237214,4.5,0.875
375,The Cottage,$$,2.5,10003.0,40.735746540724,-73.9878559112549,210,50,15,233.49714285714282,0.05456252217353875,2100,0.04548422198041349,2.5,0.375
376,Best Fuzhou Restaurant,,5.0,10002.0,40.7167625427246,-73.9927978515625,4,227,3,-124.5,0.018049326772155847,40,0.0006528835690968443,5.0,1.0
377,Red Star Restaurant,$,3.0,10029.0,40.7987632751465,-73.9426727294922,13,17,4,-40.27428571428572,0.026639758357702152,130,0.0026115342763873774,3.0,0.5
378,Wok To Walk,$,4.0,10003.0,40.736287100000006,-73.9891207,163,49,12,-23.50285714285718,0.02835032633514904,1630,0.0352557127312296,4.0,0.75
379,Ming's Restaurant,$,3.0,10001.0,40.75295,-73.99686,26,24,11,-90.31222222222222,0.021536240104414444,260,0.00544069640914037,3.0,0.5
380,Great Wall,,2.5,10016.0,40.7470505395815,-73.9776204299111,12,51,0,-29.922500000000007,0.027695567830153135,120,0.002393906420021763,2.5,0.375
381,Keming Restaurant,$$,4.0,7030.0,40.74893,-74.02772,75,4,0,147.5,0.04579141730928426,750,0.016104461371055496,4.0,0.75
382,New Ah Ping Snacketeria,$,4.5,10002.0,40.714019,-73.99535300000001,4,223,0,-130.5,0.017437368892660367,40,0.0006528835690968443,4.5,0.875
383,Hoa Kitchen,$$,2.0,10001.0,40.748641,-73.995635,55,34,11,-6.312222222222218,0.03010365041735116,550,0.0117519042437432,2.0,0.25
384,Chinese Tuxedo,$$$,3.5,10013.0,40.71433,-73.99804,108,220,0,167.6233333333333,0.04784385604179216,1080,0.023286180631120784,3.5,0.625
385,Super Red Star Kitchen,$,2.5,10027.0,40.80765,-73.94963,21,9,0,-39.0,0.02676972655496643,210,0.004352557127312296,2.5,0.375
386,SunShine,$$,3.5,10013.0,40.71397,-73.99613640000001,72,222,0,-12.376666666666694,0.029485119656927763,720,0.01545157780195865,3.5,0.625
387,Happy Family Chinese Restaurant,$$,2.5,10036.0,40.7601737976074,-73.9955139160156,61,34,0,54.67444444444443,0.03632386228582299,610,0.013057671381936888,2.5,0.375
388,China 59 Restaurant,$$,2.5,10038.0,40.7092934,-74.00885009999999,48,26,33,46.5,0.03549012633777702,480,0.010228509249183896,2.5,0.375
389,Yang Garden Chinese Restaurant,$,3.0,10033.0,40.855266,-73.937759,15,3,1,-56.40888888888887,0.024994142100163624,150,0.003046789989118607,3.0,0.5
390,Malaysia Grill,$$,4.0,10024.0,40.7994155883789,-73.96778869628909,220,26,5,303.52,0.06170436203576505,2200,0.04766050054406964,4.0,0.75
391,Carma Asian Tapas,$$,4.0,10014.0,40.72999,-74.0032,301,25,11,295.53363636363633,0.06088980900980023,3010,0.06528835690968444,4.0,0.75
392,Happy Wok Restaurant,$,3.5,10002.0,40.7180023,-73.9858322,8,83,6,-126.5,0.01784534081232402,80,0.0015233949945593036,3.5,0.625
393,Ping's Seafood,$$,3.5,10013.0,40.714442,-73.998636,535,219,0,913.6233333333333,0.12393061905906345,5350,0.1162132752992383,3.5,0.625
394,Panda Express,$,3.0,10022.0,40.756240000000005,-73.97012,55,38,16,-122.12700000000001,0.018291356113496308,550,0.0117519042437432,3.0,0.5
395,Profit Chinese Restaurant,$,2.5,10016.0,40.742059999999995,-73.97765,47,38,0,-12.922500000000007,0.02942944848872366,470,0.01001088139281828,2.5,0.375
396,Ms Mi's Hot Pot,$$$,3.5,10011.0,40.7361133076005,-73.9941993098535,33,34,15,-45.870000000000005,0.026069034782944107,330,0.006964091403699674,3.5,0.625
397,Wok To Walk,$,3.5,10018.0,40.7547179,-73.991281,292,40,13,219.70565217391305,0.053155886941273586,2920,0.0633297062023939,3.5,0.625
398,Sun Sai Gai Restaurant,$,3.0,10013.0,40.717296600000005,-73.9992065,186,218,11,29.623333333333306,0.033768824813396124,1860,0.04026115342763874,3.0,0.5
399,Chopstix,$,3.0,10004.0,40.7043655812028,-74.0091101794667,13,18,12,-51.233333333333334,0.02552201243399509,130,0.0026115342763873774,3.0,0.5
400,China Town Chinese Restaurant,$,2.5,10002.0,40.722095489502,-73.9849090576172,9,41,0,-125.5,0.017947333792239933,90,0.0017410228509249185,2.5,0.375
401,Topaz Noodle Bar,$$,4.0,10019.0,40.764442443847706,-73.9789733886719,294,30,19,441.75,0.07580285164954174,2940,0.06376496191512514,4.0,0.75
402,Big Hing Wong,$,3.0,10002.0,40.71761,-73.99168,28,228,7,-106.5,0.019885200410642286,280,0.0058759521218716,3.0,0.5
403,Fatima's Halal Kitchen,$,4.0,11106.0,40.763118608431895,-73.9275405041124,291,12,3,288.5,0.060172427477428035,2910,0.06311207834602829,4.0,0.75
404,Number 1 Chinese Restaurant,$,3.5,10026.0,40.80127,-73.94974,6,12,5,-51.0,0.02554581079597547,60,0.001088139281828074,3.5,0.625
405,Concord Garden,$,2.5,10025.0,40.80231,-73.96455999999999,25,24,3,-120.00333333333333,0.018507955205177735,250,0.005223068552774755,2.5,0.375
406,Go Zen,$$,4.0,10012.0,40.7314279675484,-74.0005099028349,489,31,9,779.2669230769231,0.11022720840620721,4890,0.10620239390642003,4.0,0.75
407,Aki King,$$,3.5,10010.0,40.73863,-73.98193,10,40,0,-49.587500000000006,0.0256898758801067,100,0.001958650707290533,3.5,0.625
408,Momos & Buns,,3.5,10016.0,40.742844,-73.982628,3,51,10,-52.42250000000001,0.025400725782045084,30,0.0004352557127312296,3.5,0.625
409,Chung Lan Gardens,$,3.5,10037.0,40.8124525,-73.9417837,5,8,4,-32.0,0.027483677414377825,50,0.0008705114254624592,3.5,0.625
410,Nom Wah Tea Parlor,$$,3.5,10013.0,40.714490521829,-73.998153857324,1425,221,0,2693.6233333333334,0.3054781233093891,14250,0.3099020674646355,3.5,0.625
411,China Taste,,3.5,10003.0,40.73111,-73.98307,3,53,4,-179.00285714285718,0.012490417958224522,30,0.0004352557127312296,3.5,0.625
412,Lanzhou Ramen,$,3.5,10038.0,40.713604100000005,-73.99301379999999,27,215,4,-22.5,0.028452610723579002,270,0.0056583242655059846,3.5,0.625
413,Noodle Q,$,4.0,10038.0,40.7135648935571,-73.9975924790089,11,217,0,-38.5,0.02682072304492439,110,0.002176278563656148,4.0,0.75
414,Up Thai,$$,4.5,10021.0,40.76996,-73.95792,1406,22,2,2665.4183333333335,0.30260141131086077,14060,0.3057671381936888,4.5,0.875
415,Pure Thai Cookhouse,$$,4.0,10019.0,40.764291,-73.988159,1990,42,10,3833.75,0.42176303952431965,19900,0.43286180631120785,4.0,0.75
416,OBAO,$$,4.0,10036.0,40.760616600000006,-73.991225,1382,41,2,2696.6744444444444,0.30578931522366587,13820,0.300544069640914,4.0,0.75
417,Noodies,$$,4.0,10019.0,40.7662850538302,-73.9866788007826,386,36,2,625.75,0.09456955995406979,3860,0.08378672470076169,4.0,0.75
418,Happy Wok,$,3.5,10029.0,40.788955,-73.940933,9,20,0,-44.27428571428572,0.0262317864380385,90,0.0017410228509249185,3.5,0.625
419,Empire Garden,$,2.5,10025.0,40.7985736262374,-73.9621864229434,16,24,2,-129.00333333333333,0.017590018385934516,160,0.003264417845484222,2.5,0.375
420,Manna House Bakery,$,4.0,10013.0,40.71815,-73.99705,58,222,11,-98.3766666666667,0.020713723384159218,580,0.012404787812840044,4.0,0.75
421,Yummy Chinese,$$,3.5,10002.0,40.7151107788086,-73.9938049316406,15,225,1,-104.5,0.02008918637047411,150,0.003046789989118607,3.5,0.625
422,Lo-Fatt-Chow,$,4.0,7030.0,40.7474615723213,-74.0378006521148,70,2,0,67.5,0.037631978916011194,700,0.015016322089227421,4.0,0.75
423,Wok To Walk,$,3.0,10017.0,40.7516428,-73.9740775,166,45,9,90.85,0.04001351499704778,1660,0.035908596300326445,3.0,0.5
424,Kungfu Kitchen,,4.5,10019.0,40.761539500000005,-73.9869963,2,47,21,-141.25,0.0163409443585643,20,0.0002176278563656148,4.5,0.875
425,New Happy Joy Restaurant,$,2.5,10019.0,40.765602,-73.990768,11,35,0,-135.25,0.01695290223805978,110,0.002176278563656148,2.5,0.375
426,Grand Sichuan,$$,3.0,10011.0,40.742496,-74.00012199999999,9,21,12,-126.87,0.01780760340975513,90,0.0017410228509249185,3.0,0.5
427,Fu Zhou Wei Zhong Wei Jia Xiang Feng Wei,$,4.0,10002.0,40.714,-73.99439,16,222,0,-118.5,0.018661284651651327,160,0.003264417845484222,4.0,0.75
428,Spice,$,2.5,10024.0,40.790059899999996,-73.97351,51,17,3,-85.48000000000002,0.02202909284847478,510,0.01088139281828074,2.5,0.375
429,Thai Villa,$$,4.5,10003.0,40.739020000000004,-73.99065,843,41,11,1499.4971428571428,0.18368563474708496,8430,0.18324265505984766,4.5,0.875
430,Rice Noodle Cart,,5.0,10013.0,40.71787,-73.99710999999999,4,222,11,-146.3766666666667,0.01581806034819538,40,0.0006528835690968443,5.0,1.0
431,Szechuan,,3.5,10021.0,40.768131,-73.959197,2,19,4,-141.58166666666662,0.016307116686892192,20,0.0002176278563656148,3.5,0.625
432,Wondee Siam,$$,4.0,10019.0,40.764945000000004,-73.987472,827,38,4,1507.75,0.18452736823990532,8270,0.1797606093579978,4.0,0.75
433,Shun Wei,$,3.0,10038.0,40.711940000000006,-73.996688,15,202,0,-34.5,0.027228694964588043,150,0.003046789989118607,3.0,0.5
434,Tasty Hand Pulled Noodles II,$$,4.0,10036.0,40.7605202331697,-73.9908619970083,127,43,4,186.67444444444442,0.04978693563472354,1270,0.027421109902067465,4.0,0.75
435,Buddha Vegetarian Kosher Cuisine,$$,4.0,10013.0,40.7164001,-73.999321,202,223,8,247.6233333333333,0.056003294435065215,2020,0.043743199129488576,4.0,0.75
436,Pig and Khao,$$,4.0,10002.0,40.719253,-73.984748,1108,44,5,2081.5,0.24304584046666058,11080,0.24091403699673558,4.0,0.75
437,Wing Gong I Kitchen,$,3.5,10029.0,40.791313,-73.939239,4,17,0,-49.27428571428572,0.025721821538458933,40,0.0006528835690968443,3.5,0.625
438,New Asia,$$,2.0,10025.0,40.791819244623206,-73.972065076232,26,17,6,-93.00333333333333,0.021261765662907394,260,0.00544069640914037,2.0,0.25
439,China Garden,$,4.0,11104.0,40.741659999999996,-73.92577,48,10,4,45.5,0.035388133357861104,480,0.010228509249183896,4.0,0.75
440,M Star Cafe,$,3.5,10002.0,40.713928,-73.99651999999999,220,222,0,85.5,0.03946785255449763,2200,0.04766050054406964,3.5,0.625
441,Fo Ying Chinese Take Out,$,2.5,10019.0,40.7615277171135,-73.9867260307074,25,48,22,-121.25,0.018380803956882564,250,0.005223068552774755,2.5,0.375
442,Dragon & Phoenix Restaurant,$,4.0,11105.0,40.7754678279161,-73.911422342062,101,2,4,98.5,0.04079376129340451,1010,0.02176278563656148,4.0,0.75
443,Guan Qi Feng BBQ,,4.5,10002.0,40.7147789,-73.99417109999999,4,225,0,-124.5,0.018049326772155847,40,0.0006528835690968443,4.5,0.875
444,Hong Kong Noodle 2,$,2.5,10016.0,40.7444,-73.98146,36,59,16,-23.922500000000007,0.028307525709648614,360,0.007616974972796518,2.5,0.375
445,Hua Xia,$$,4.0,10002.0,40.7142606365804,-73.9951291801726,2,223,0,-130.5,0.017437368892660367,20,0.0002176278563656148,4.0,0.75
446,Vietnaam,$$,4.0,10128.0,40.779148101806605,-73.9504165649414,528,22,3,983.5,0.13105754851898777,5280,0.114689880304679,4.0,0.75
447,Aunt Wang,$,4.0,10027.0,40.8079748,-73.96205649999999,1,18,5,-59.0,0.024729866956648167,10,0.0,4.0,0.75
448,Kings Co Imperial,$$,4.0,11211.0,40.71512,-73.95097,182,8,6,361.5,0.0676179150112897,1820,0.03939064200217628,4.0,0.75
449,Foliage Garden,$,4.0,7093.0,40.7858,-74.00865,37,6,0,34.5,0.03426621057878606,370,0.007834602829162133,4.0,0.75
450,Larb Ubol,$$,4.0,10018.0,40.7550583,-73.99475859999998,584,32,7,1095.705652173913,0.14250173734761362,5840,0.12687704026115343,4.0,0.75
451,China Express,$,4.5,11211.0,40.7061859,-73.95014350000001,84,6,6,81.5,0.03905988063483398,840,0.018063112078346027,4.5,0.875
452,Oriental Garden Restaurant,$$,3.5,10013.0,40.715919899999996,-73.9972499,420,225,0,683.6233333333333,0.10047223367840341,4200,0.0911860718171926,3.5,0.625
453,Tao Hong Bakery,$,4.5,10002.0,40.71735,-73.9945679,19,227,4,-115.5,0.018967263591399067,190,0.003917301414581066,4.5,0.875
454,456 Shanghai Cuisine,$$,3.5,10013.0,40.71627,-73.99821999999999,428,226,5,699.6233333333333,0.10210412135705803,4280,0.09292709466811752,3.5,0.625
455,The Chinese Club,$$,4.0,11211.0,40.713844,-73.96039,138,11,0,273.5,0.05864253277868933,1380,0.029815016322089227,4.0,0.75
456,PACIFIC MOON,$,4.5,11377.0,40.75119,-73.90269,36,5,0,33.5,0.034164217598870145,360,0.007616974972796518,4.5,0.875
457,Silver Palace,,3.5,10031.0,40.823029999999996,-73.9526,7,7,4,-53.22,0.025319386380562147,70,0.0013057671381936887,3.5,0.625
458,Chef 28,$$,3.0,10016.0,40.74393,-73.98493,84,54,11,108.07749999999999,0.041770599058549164,840,0.018063112078346027,3.0,0.5
459,Grand Bo Ky Restaurant,$,3.5,10013.0,40.7189831,-73.995878,117,223,5,-39.376666666666694,0.026731309199198104,1170,0.025244831338411315,3.5,0.625
460,Chatham Seafood Restaurant,$$,3.5,10038.0,40.714,-73.99833000000001,167,220,0,284.5,0.05976445555776438,1670,0.036126224156692054,3.5,0.625
461,M Greenpoint,$$,4.0,11222.0,40.726321999999996,-73.951934,57,8,6,111.5,0.04211967003231138,570,0.012187159956474429,4.0,0.75
462,Ocean Chinese Restaurant,$$,2.5,10027.0,40.81086,-73.94355999999999,10,11,0,-40.0,0.02666773357505052,100,0.001958650707290533,2.5,0.375
463,Profit Chinese Restaurant II,$$,3.0,10016.0,40.74565,-73.97557990000001,13,40,0,-33.92250000000001,0.02728759591048948,130,0.0026115342763873774,3.0,0.5
464,Xi'an Famous Foods,$,4.0,11222.0,40.7243301734731,-73.9509299397469,151,6,6,148.5,0.04589341028920017,1510,0.03264417845484222,4.0,0.75
465,Hunan House I,$,4.5,7306.0,40.72857,-74.06241999999999,21,1,0,18.5,0.03263432290013145,210,0.004352557127312296,4.5,0.875
466,Food King,$,4.0,7302.0,40.72117,-74.04568,70,6,0,67.5,0.037631978916011194,700,0.015016322089227421,4.0,0.75
467,Delicious Inc. Chinese Restaurant,$$,3.0,10029.0,40.787657200000005,-73.9444213,6,25,0,-41.27428571428572,0.02653776537778624,60,0.001088139281828074,3.0,0.5
468,Hong Cheong Kitchen,,3.5,10027.0,40.812366,-73.949928,3,13,6,-52.5,0.025392821326101604,30,0.0004352557127312296,3.5,0.625
469,spades,,4.0,10001.0,40.7469902,-73.9866333,1,52,10,-113.81222222222222,0.019139405076390482,10,0.0,4.0,0.75
470,New Food King,$,3.5,10036.0,40.763659999999994,-73.99217,48,35,0,-19.325555555555567,0.028776381772045403,480,0.010228509249183896,3.5,0.625
471,Hong Kong Street Cart At Broadway Bites,$$,4.0,10001.0,40.750717,-73.9869138,1,42,17,-114.31222222222222,0.019088408586432525,10,0.0,4.0,0.75
472,Cafe Hong Kong,$$,3.0,10013.0,40.7153659847304,-73.9975044876337,120,225,0,83.6233333333333,0.03927644572885544,1200,0.02589771490750816,3.0,0.5
473,Birds of a Feather,$$,4.0,11211.0,40.714420000000004,-73.960441,113,12,0,223.5,0.053542883782893666,1130,0.024374319912948857,4.0,0.75
474,Asian Station,$$,2.5,10028.0,40.77626,-73.956261,64,24,1,-122.0,0.01830430922194563,640,0.013710554951033732,2.5,0.375
475,Amazing 66,$$,3.5,10013.0,40.716099,-73.997955,245,225,5,333.62333333333333,0.06477469070783376,2450,0.053101196953210014,3.5,0.625
476,Sichuan Hot Pot Cuisine,$$,3.0,10013.0,40.7150052171701,-73.99854681357341,132,225,0,107.6233333333333,0.04172427724683736,1320,0.028509249183895538,3.0,0.5
477,Wok Wok,$$,4.0,10013.0,40.71403,-73.99899,408,219,0,659.6233333333333,0.09802440216042149,4080,0.08857453754080523,4.0,0.75
478,Rasa,$$,4.0,10011.0,40.7327654,-73.99756740000001,467,38,3,789.13,0.11123317301273168,4670,0.10141458106637649,4.0,0.75
479,China Place,$$,2.5,10027.0,40.814096500000005,-73.9597942,45,9,4,30.0,0.03380724216916445,450,0.009575625680087052,2.5,0.375
480,Bamboo Village,$$,3.5,10013.0,40.717524445907394,-73.9953510697201,12,227,4,-132.3766666666667,0.017245962067018165,120,0.002393906420021763,3.5,0.625
481,Panda Express,$$,3.0,10036.0,40.760996,-73.991116,45,39,2,22.674444444444433,0.03306008692851376,450,0.009575625680087052,3.0,0.5
482,Xing's Chef,$,4.5,11105.0,40.77010920790771,-73.9021204913637,63,0,0,60.5,0.03691802805659981,630,0.013492927094668117,4.5,0.875
483,Flaming Kitchen,$$,3.5,10002.0,40.717325,-73.995023,92,228,4,49.5,0.035796105277524755,920,0.019804134929270946,3.5,0.625
484,Norikoh,$$,4.0,10016.0,40.751259550452204,-73.98163318634029,313,57,8,566.0775,0.08848338386003746,3130,0.06789989118607181,4.0,0.75
485,Gordon Chen Kitchen,$,3.5,10022.0,40.757358,-73.968002,4,37,10,-173.127,0.01308971413778473,40,0.0006528835690968443,3.5,0.625
486,Matsuya,$$,3.5,10021.0,40.7705892,-73.9512062,3,21,0,-140.58166666666662,0.016409109666808107,30,0.0004352557127312296,3.5,0.625
487,Mooncake Foods,$$,4.0,10013.0,40.723596182527,-74.00409635108001,475,37,9,793.6233333333333,0.11169146146915386,4750,0.10315560391730141,4.0,0.75
488,Taste Chinese Restaurant,$,2.0,10013.0,40.7157208,-74.0075003,10,74,20,-146.3766666666667,0.01581806034819538,100,0.001958650707290533,2.0,0.25
489,Precious Chinese Cuisine,$$,3.5,7030.0,40.738459999999996,-74.03092,217,3,0,431.5,0.07475742360540363,2170,0.0470076169749728,3.5,0.625
490,Red House,$,2.5,10003.0,40.7333221435547,-73.9865036010742,75,59,7,-111.50285714285718,0.01937494410254867,750,0.016104461371055496,2.5,0.375
491,Chopstick House,$,2.0,10018.0,40.751482700000004,-73.9881506,54,44,21,-18.29434782608695,0.02888155772128623,540,0.011534276387377584,2.0,0.25
492,OK 218,$,3.5,10013.0,40.718990000000005,-73.995811,49,224,5,-107.3766666666667,0.019795786564916,490,0.01044613710554951,3.5,0.625
493,Happy Family,$,3.0,10002.0,40.714043,-73.98755600000001,13,105,4,-121.5,0.018355305711903587,130,0.0026115342763873774,3.0,0.5
494,Kitty's Kitchen,,5.0,10019.0,40.772419899999996,-73.99335,1,5,0,-143.75,0.016085961908774517,10,0.0,5.0,1.0
495,Crispy Bamboo Village,$,4.0,10030.0,40.8160789713508,-73.9466381763074,17,11,6,-25.28,0.028169070239412765,170,0.003482045701849837,4.0,0.75
496,Pao & Cha Cha,$$,4.0,11102.0,40.7718436,-73.92405790000001,89,4,0,175.5,0.04864722074692983,890,0.019151251360174103,4.0,0.75
497,New Beef King,$$,4.0,10013.0,40.715768,-73.99929809999999,61,223,5,-34.376666666666694,0.027241274098777673,610,0.013057671381936888,4.0,0.75
498,Zheng's River Restaurant,$$$$,4.0,10026.0,40.802009000000005,-73.95671,1,17,7,-53.0,0.025341824836143646,10,0.0,4.0,0.75
499,Nom Wah Kuai,$$,3.5,10013.0,40.71897,-74.00102,19,199,15,-118.3766666666667,0.018673863785840954,190,0.003917301414581066,3.5,0.625
500,Doka Square,$$,4.0,10002.0,40.71932,-73.99152,104,200,9,73.5,0.038243936795506674,1040,0.022415669205658323,4.0,0.75
501,Fuleen Seafood Restaurant,$$,3.5,10002.0,40.7139015197754,-73.9968795776367,74,220,0,13.5,0.03212435800055188,740,0.01588683351468988,3.5,0.625
502,Unicorn Restaurant,,4.0,10035.0,40.799615,-73.93897659999999,2,12,4,-69.39,0.02367015989532183,20,0.0002176278563656148,4.0,0.75
503,Peking BBQ,$,4.0,11377.0,40.7456439082048,-73.9062357614363,198,5,3,195.5,0.050687080345248096,1980,0.042872687704026115,4.0,0.75
504,Jaya 888,$$,3.0,10013.0,40.716906200000004,-73.99988379999999,244,218,10,331.62333333333333,0.06457070474800193,2440,0.0528835690968444,3.0,0.5
505,Wei Williamsburg,$$,4.0,11211.0,40.710786799999994,-73.9542168,85,14,0,167.5,0.04783127690760253,850,0.018280739934711642,4.0,0.75
506,Soup Dumpling Plus,$$,4.0,7024.0,40.847570000000005,-73.9706099,349,1,0,695.5,0.10168357030320474,3490,0.07573449401523395,4.0,0.75
507,567 Chinese Asian Express,,3.0,10029.0,40.788955,-73.940933,8,20,0,-33.27428571428572,0.027353709217113546,80,0.0015233949945593036,3.0,0.5
508,The Wei,$,4.5,11201.0,40.68983,-73.98170999999999,159,5,14,156.5,0.04670935412852748,1590,0.03438520130576714,4.5,0.875
509,Double Dragon,,3.0,10029.0,40.789245,-73.94075,4,19,0,-43.27428571428572,0.026333779417954412,40,0.0006528835690968443,3.0,0.5
510,8 Dragon & Phoenix Chinese Restaurant,$,4.5,11105.0,40.775851824269296,-73.91128542386241,17,2,4,14.5,0.03222635098046779,170,0.003482045701849837,4.5,0.875
511,Joy Luck Palace,$$,3.0,10013.0,40.7169727141044,-73.9975602870106,157,224,7,157.6233333333333,0.04682392624263302,1570,0.03394994559303591,3.0,0.5
512,Great China Restaurant,$,3.5,10027.0,40.81689,-73.953292,2,13,0,-58.0,0.02483185993656408,20,0.0002176278563656148,3.5,0.625
513,Tang S,$,2.0,10027.0,40.81101829999999,-73.9523964,13,14,6,-47.0,0.025953782715639126,130,0.0026115342763873774,2.0,0.25
514,Yaso Tangbao,$$,4.0,11201.0,40.6918206366101,-73.98639923640009,457,5,26,911.5,0.12371405396504201,4570,0.09923830250272035,4.0,0.75
515,AK US Group,$,4.0,10002.0,40.717793,-73.99438,9,227,5,-125.5,0.017947333792239933,90,0.0017410228509249185,4.0,0.75
516,Fulton Chef,$,2.5,10038.0,40.708732,-74.005348,9,27,10,-40.5,0.026616737085092563,90,0.0017410228509249185,2.5,0.375
517,Tian Fu Lou,$$,2.0,10036.0,40.755909,-73.980064,16,34,10,-35.32555555555557,0.02714449409339079,160,0.003264417845484222,2.0,0.25
518,Hung Sang,$,3.5,7087.0,40.772983700000005,-74.0285907,11,5,0,8.5,0.03161439310097231,110,0.002176278563656148,3.5,0.625
519,Deluxe Green Bo Restaurant,$,3.5,10013.0,40.715540215764996,-73.9981645926656,536,226,1,379.62333333333333,0.06946636778396577,5360,0.11643090315560392,3.5,0.625
520,Tang Tou Wang's Cuisine,$,5.0,10002.0,40.71492,-73.99391,2,225,1,-132.5,0.01723338293282854,20,0.0002176278563656148,5.0,1.0
521,Min Jiang Mini Cafe,$,3.0,10002.0,40.7168766,-73.9926044,9,227,3,-125.5,0.017947333792239933,90,0.0017410228509249185,3.0,0.5
522,Baoburg,$$,4.0,11222.0,40.7234929271998,-73.9503321851175,110,5,6,217.5,0.052930925903398186,1100,0.02372143634385201,4.0,0.75
523,Steamed Rice Rolls Cart,$,4.0,10002.0,40.718359899999996,-73.99395,5,228,5,-129.5,0.01753936187257628,50,0.0008705114254624592,4.0,0.75
524,Lan Larb,$$,4.0,10016.0,40.745373,-73.97580699999999,173,41,0,286.0775,0.05992534948358173,1730,0.037431991294885746,4.0,0.75
525,Hometown Hotpot & BBQ,$$,4.0,10013.0,40.71931,-73.99688990000001,707,218,11,1257.6233333333332,0.15901620415013762,7070,0.15364526659412406,4.0,0.75
526,An'Nam,$$,4.0,10036.0,40.760528564453104,-73.98638916015621,149,52,26,230.67444444444442,0.05427462675102372,1490,0.03220892274211099,4.0,0.75
527,Formosa Cafe,$,3.5,10002.0,40.7156312539499,-73.9931514282417,80,226,5,-54.5,0.025188835366269775,800,0.01719260065288357,3.5,0.625
528,Dragon Town,$$$$,2.5,10029.0,40.7952288,-73.9421936,7,25,4,-25.274285714285718,0.02816965305644085,70,0.0013057671381936887,2.5,0.375
529,Po Wong Restaurant,$,4.0,7087.0,40.758224,-74.044303,17,4,0,14.5,0.03222635098046779,170,0.003482045701849837,4.0,0.75
530,TAO Uptown,$$$,3.5,10022.0,40.76269,-73.97147,2019,33,10,5879.873,0.6304532215688078,20190,0.43917301414581067,3.5,0.625
531,East Noodle Village,$,3.0,10002.0,40.7175445556641,-73.994499206543,13,227,5,-121.5,0.018355305711903587,130,0.0026115342763873774,3.0,0.5
532,Chinese Food Cart,$$$$,5.0,10292.0,40.7217900752834,-73.9998465345092,1,131,9,1.5,0.03090044224156092,10,0.0,5.0,1.0
533,LoveMama,$$,4.0,10003.0,40.7303859,-73.9860613,2760,54,5,5333.4971428571425,0.5747267197446965,27600,0.6004352557127313,4.0,0.75
534,Malii,$$,4.5,10029.0,40.789432,-73.942962,126,23,0,198.72571428571428,0.051016080557605425,1260,0.02720348204570185,4.5,0.875
535,Pho Bang Restaurant,$,4.0,10013.0,40.719516,-73.996566,435,218,7,278.62333333333333,0.05916507681245853,4350,0.09445048966267683,4.0,0.75
536,Thai Market,$$,4.0,10025.0,40.801320000000004,-73.96529,799,25,2,1452.9966666666667,0.17894291261290934,7990,0.1736670293797606,4.0,0.75
537,Beijing Chinese,$,3.0,10003.0,40.733059000000004,-73.9861382,18,59,6,-168.50285714285718,0.013561344247341612,180,0.0036996735582154514,3.0,0.5
538,Good Chinese Kitchen,$,4.0,7047.0,40.807477,-74.017076,24,0,0,21.5,0.032940301839879185,240,0.00500544069640914,4.0,0.75
539,Panda Express,$,3.0,10001.0,40.7501065718521,-73.99485949426891,26,35,14,-90.31222222222222,0.021536240104414444,260,0.00544069640914037,3.0,0.5
540,Empire,$$,2.0,10007.0,40.71314520000001,-74.0077389,17,51,38,-36.0,0.02707570549471417,170,0.003482045701849837,2.0,0.25
541,King Food Restaurant,$,2.5,10024.0,40.784107,-73.977981,3,16,4,-133.48000000000002,0.017133429812510943,30,0.0004352557127312296,2.5,0.375
542,Young Xinjiang BBQ Cart,$,4.5,10002.0,40.714269673846395,-73.9941427168956,31,223,1,-103.5,0.020191179350390026,310,0.006528835690968444,4.5,0.875
543,Petite Soo Chow,$$,3.5,7010.0,40.824509899999995,-73.98781,441,2,0,879.5,0.12045027860773279,4410,0.0957562568008705,3.5,0.625
544,Dim Sum Bar,$$,4.0,11249.0,40.714728,-73.961372,107,11,0,211.5,0.05231896802390271,1070,0.02306855277475517,4.0,0.75
545,Hunan Delight,$$,4.0,11215.0,40.6755282563532,-73.9780712127686,246,4,0,489.5,0.0806730164405266,2460,0.05331882480957562,4.0,0.75
546,Shanghai Restaurant,$$,4.0,7024.0,40.855806452623604,-73.97785361856221,169,1,0,335.5,0.06496609753347596,1690,0.036561479869423284,4.0,0.75
547,Lao Bei Fang Dumpling House,$,4.0,11373.0,40.741153717041,-73.87962341308591,466,11,3,463.5,0.07802119896271285,4660,0.10119695321001088,4.0,0.75
548,Food Sing 88 Corp,$,4.0,10038.0,40.713611,-73.997528,9,217,0,-40.5,0.026616737085092563,90,0.0017410228509249185,4.0,0.75
549,Rice Noodle Cart,$,4.5,10002.0,40.7139045494042,-73.99012328494359,61,193,4,-73.5,0.023250968747867425,610,0.013057671381936888,4.5,0.875
550,Feng Shui,$$,1.5,10017.0,40.752037048339794,-73.97633361816409,36,49,16,-3.1500000000000057,0.030426174884951925,360,0.007616974972796518,1.5,0.125
551,Tsing Garden Chinese Restaurant,,3.5,7093.0,40.789271899999996,-74.0060948,32,4,0,77.5,0.03865190871517033,320,0.006746463547334059,3.5,0.625
552,Taste of China,$,4.0,7087.0,40.7789153727524,-74.0161604825466,16,7,0,13.5,0.03212435800055188,160,0.003264417845484222,4.0,0.75
553,Deng Ji II,$$,3.5,10002.0,40.714295,-73.9939834,19,224,1,-96.5,0.020905130209801417,190,0.003917301414581066,3.5,0.625
554,Yang's Chinese Food,,2.5,10014.0,40.7397919,-74.0033188,2,19,11,-301.46636363636367,0.0,20,0.0002176278563656148,2.5,0.375
555,Hoy Wong Restaurant,$,3.5,10013.0,40.716581899999994,-73.9980213,84,224,8,-72.3766666666667,0.023365540861972962,840,0.018063112078346027,3.5,0.625
556,Szechun Express,$$,4.5,7010.0,40.8243995817555,-73.984444908711,18,2,0,33.5,0.034164217598870145,180,0.0036996735582154514,4.5,0.875
557,Taste of Shanghai,$,3.0,10013.0,40.715249679603,-73.998610561094,43,225,1,-113.3766666666667,0.01918382868542052,430,0.009140369967355821,3.0,0.5
558,Caridad China,$$,4.5,11206.0,40.7049499,-73.94264,36,2,0,69.5,0.03783596487584302,360,0.007616974972796518,4.5,0.875
559,New Asian Cuisine,$,4.5,11377.0,40.739352399999994,-73.92102129999999,10,9,0,7.5,0.0315124001210564,100,0.001958650707290533,4.5,0.875
560,Strange Taste Cuisine,$,5.0,10002.0,40.7128335739664,-73.9967823028564,1,214,0,-133.5,0.017131389952912628,10,0.0,5.0,1.0
561,Alpha Fusion,$$,3.5,10001.0,40.75326629999999,-73.99589,333,28,16,549.6877777777778,0.08681174725059894,3330,0.07225244831338411,3.5,0.625
562,Chen Wong Restaurant,$,2.0,10002.0,40.712759999999996,-73.990287,26,180,4,-108.5,0.019681214450810457,260,0.00544069640914037,2.0,0.25
563,Sunrise Chinese Restaurant,,3.0,10002.0,40.7159409,-73.9927712,6,227,5,-119.5,0.018559291671735412,60,0.001088139281828074,3.0,0.5
564,King Dragon,$,2.0,10029.0,40.792865,-73.950347,5,22,0,-48.27428571428572,0.025823814518374847,50,0.0008705114254624592,2.0,0.25
565,China Express,$,4.0,7093.0,40.79311,-74.00313,13,3,0,10.5,0.03181837906080414,130,0.0026115342763873774,4.0,0.75
566,Jalan 31,$$,4.5,10016.0,40.744659999999996,-73.98123000000001,28,59,16,-3.9225000000000065,0.03034738530796688,280,0.0058759521218716,4.5,0.875
567,Eim Khao Mun Kai Elmhurst,$,4.5,11373.0,40.7429414097644,-73.8832733356575,243,11,5,240.5,0.0552767644414642,2430,0.052665941240478784,4.5,0.875
568,Uncle Zhou,$,4.0,11373.0,40.74075,-73.87905,201,11,3,198.5,0.05099305928499584,2010,0.04352557127312296,4.0,0.75
569,Siz-In-Pan,$,4.0,11217.0,40.6880326,-73.9819963,84,6,10,81.5,0.03905988063483398,840,0.018063112078346027,4.0,0.75
570,New City Kitchen Express,$,3.5,11101.0,40.74447,-73.95316,28,1,8,25.5,0.033348273759542836,280,0.0058759521218716,3.5,0.625
571,Village Express Asian Cuisine,,5.0,10014.0,40.732387,-74.00331899999999,2,25,10,-301.46636363636367,0.0,20,0.0002176278563656148,5.0,1.0
572,Asian Station,$$,3.5,10022.0,40.757537,-73.9703339,179,44,16,180.873,0.04919522902801803,1790,0.03873775843307944,3.5,0.625
573,China Town Food Market,$,4.0,10013.0,40.718555,-73.99556700000001,2,226,5,-154.3766666666667,0.015002116508868074,20,0.0002176278563656148,4.0,0.75
574,The Handpulled Noodle,$$,4.0,10031.0,40.82839,-73.9487,404,4,3,737.28,0.10594483700409159,4040,0.08770402611534277,4.0,0.75
575,May May Kitchen,,3.0,10002.0,40.715116113424294,-73.9871853590012,9,100,3,-112.0,0.019324239021104764,90,0.0017410228509249185,3.0,0.5
576,Outer Borough,$,4.5,11249.0,40.720852,-73.961742,41,7,0,38.5,0.03467418249844971,410,0.008705114254624592,4.5,0.875
577,Green Leaf Restaurant,$,4.0,7022.0,40.820106,-74.008427,39,0,0,36.5,0.03447019653861789,390,0.008269858541893362,4.0,0.75
578,Shun Wang Restaurant,$,4.0,11373.0,40.743137359619105,-73.88304138183591,118,11,5,115.5,0.04252764195197503,1180,0.02546245919477693,4.0,0.75
579,Dining Room Management Group,$,2.5,10013.0,40.7174754,-73.9971571,22,223,10,-134.3766666666667,0.01704197610718634,220,0.0045701849836779105,2.5,0.375
580,Hanoi House,$$,4.0,10009.0,40.72698,-73.98357,212,50,0,305.2275,0.06187851504897147,2120,0.04591947769314472,4.0,0.75
581,King's Wok,$,4.0,11377.0,40.76005,-73.90741,13,5,0,10.5,0.03181837906080414,130,0.0026115342763873774,4.0,0.75
582,Hardee Chinese- American,$,4.5,11205.0,40.6933441162109,-73.97222900390621,15,2,0,12.5,0.03202236502063597,150,0.003046789989118607,4.5,0.875
583,Grand Sichuan,$$,3.0,7302.0,40.72047,-74.04252,402,7,0,801.5,0.11249482617429155,4020,0.08726877040261154,3.0,0.5
584,Bangkok Cuisine Upper East Side,$$,4.0,10028.0,40.775310499999996,-73.95321659999999,197,28,4,144.0,0.04543444187957856,1970,0.0426550598476605,4.0,0.75
585,Snacky,$$,4.0,11211.0,40.714492,-73.960601,163,11,0,323.5,0.063742181774485,1630,0.0352557127312296,4.0,0.75
586,Wah Kwoon Chinese Kitchen,$,3.5,11222.0,40.724628,-73.947486,31,5,4,28.5,0.03365425269929058,310,0.006528835690968444,3.5,0.625
587,Nikko,$$,3.5,10027.0,40.81156,-73.95781,280,11,0,500.0,0.08174394272964369,2800,0.06071817192600653,3.5,0.625
588,Taste Of North China,$$,3.0,7302.0,40.716786799999994,-74.0377625661521,135,4,0,267.5,0.05803057489919385,1350,0.029162132752992384,3.0,0.5
589,Wei West,$$,3.0,10282.0,40.7153829932213,-74.01402421295641,172,11,0,341.5,0.06557805541297143,1720,0.03721436343852013,3.0,0.5
590,M Shanghai Bistro & Garden,$$,3.5,11211.0,40.71285,-73.95761999999999,392,13,0,781.5,0.11045496657597328,3920,0.08509249183895538,3.5,0.625
591,Great Wall,$,4.5,10029.0,40.795074,-73.935684,11,11,0,-42.27428571428572,0.026435772397870327,110,0.002176278563656148,4.5,0.875
592,No. 1 Flower Drum House,$,3.5,11105.0,40.7776458,-73.9086059,50,3,0,47.5,0.03559211931769293,500,0.010663764961915125,3.5,0.625
593,Shanghai Best,$$,3.0,7302.0,40.716894700000005,-74.0387484,277,5,0,551.5,0.08699658119531323,2770,0.060065288356909684,3.0,0.5
594,Ginger Root Vegan,$$,4.5,10065.0,40.762472096957396,-73.9595977571168,54,19,0,-99.82857142857142,0.02056563929093845,540,0.011534276387377584,4.5,0.875
595,Lucky House Kitchen,$,4.5,11233.0,40.683840215206104,-73.9351565390825,59,0,0,56.5,0.03651005613693615,590,0.012622415669205658,4.5,0.875
596,Friendly Restaurant,$,3.5,11101.0,40.7559963313064,-73.9424634196434,46,1,5,43.5,0.035184147398029275,460,0.009793253536452665,3.5,0.625
597,Satay Malaysian Cuisine,$$,3.5,7030.0,40.73731,-74.03066,397,2,0,791.5,0.11147489637513242,3970,0.08618063112078346,3.5,0.625
598,King's Chef,$,4.0,11103.0,40.764358,-73.91070500000001,26,5,0,23.5,0.033144287799711014,260,0.00544069640914037,4.0,0.75
599,Great Wall,,2.5,10037.0,40.8149099511421,-73.9397296879857,2,8,4,-32.0,0.027483677414377825,20,0.0002176278563656148,2.5,0.375
600,Old Peking,$,4.0,7306.0,40.7255249,-74.068306,28,1,0,25.5,0.033348273759542836,280,0.0058759521218716,4.0,0.75
601,Hong Kong Chinese Restaurant,$,3.0,10037.0,40.8151508,-73.94035840000001,4,8,4,-33.0,0.02738168443446191,40,0.0006528835690968443,3.0,0.5
602,Weng's Palace,$,2.0,10018.0,40.75612,-73.99138,56,44,8,-16.29434782608695,0.02908554368111806,560,0.011969532100108813,2.0,0.25
603,Nuevo Jardin De China Restaurant,$$,3.5,11106.0,40.761551375569894,-73.92431488202041,176,13,3,349.5,0.06639399925229875,1760,0.03808487486398259,3.5,0.625
604,Yeah Shanghai Deluxe,$$,3.0,10013.0,40.7154938098333,-73.9984104037285,108,226,1,59.623333333333306,0.03682861421087352,1080,0.023286180631120784,3.0,0.5
605,Szechaun Mirchi,$$,4.0,7010.0,40.825829999999996,-73.98787,129,2,0,255.5,0.05680665914020289,1290,0.027856365614798696,4.0,0.75
606,Chan's Dragon Inn,$$,4.0,7657.0,40.834785461425795,-74.0082931518555,93,1,0,183.5,0.04946316458625714,930,0.02002176278563656,4.0,0.75
607,Ming's Garden,,3.0,10021.0,40.763729,-73.959365,2,20,0,-141.58166666666662,0.016307116686892192,20,0.0002176278563656148,3.0,0.5
608,Grand Great Wall Restaurant,$,4.0,10031.0,40.82128370000001,-73.9506657,14,8,4,-56.72,0.02496241095085645,140,0.0028291621327529923,4.0,0.75
609,Wong Kwong Hop,$,4.5,11373.0,40.735659999999996,-73.88150999999999,44,8,0,41.5,0.03498016143819745,440,0.009357997823721436,4.5,0.875
610,Delight 28 Restaurant,$$,3.0,10013.0,40.715089,-73.998459,131,225,0,105.6233333333333,0.04152029128700553,1310,0.028291621327529923,3.0,0.5
611,Saigon Market,$$,3.5,10003.0,40.7335422,-73.99289920000001,752,46,12,1317.4971428571428,0.16512291240238874,7520,0.16343852013057672,3.5,0.625
612,Sukhumvit 51,$$,4.0,10022.0,40.755913983170295,-73.9693867939228,538,37,16,898.873,0.12242618860764377,5380,0.11686615886833515,4.0,0.75
613,Taste of China,$,4.0,11378.0,40.7276191711426,-73.8920135498047,40,1,0,37.5,0.034572189518533795,400,0.008487486398258977,4.0,0.75
614,China Chef Restaurant,$$,3.0,7094.0,40.791615379317996,-74.05780334790408,82,0,0,161.5,0.04721931902810705,820,0.0176278563656148,3.0,0.5
615,Wing Cheong Restaurant,$,4.5,11216.0,40.6803741455078,-73.9455108642578,42,0,0,39.5,0.034776175478365624,420,0.008922742110990207,4.5,0.875
616,Sunrise Chinese Restaurant,$,3.5,11106.0,40.760806,-73.923281,38,13,3,35.5,0.034368203558701974,380,0.008052230685527748,3.5,0.625
617,Good Taste Restaurant,$,4.0,10031.0,40.8214624,-73.9543845,36,4,4,-34.72,0.02720625650900654,360,0.007616974972796518,4.0,0.75
618,Ho May Kitchen,,4.0,11211.0,40.7186,-73.94072,7,1,0,15.0,0.03227734747042575,70,0.0013057671381936887,4.0,0.75
619,Happy Garden,$,3.5,11102.0,40.76728,-73.92286,61,13,4,58.5,0.03671404209676798,610,0.013057671381936888,3.5,0.625
620,Good Luck Chinese Restaurant,$,4.0,11377.0,40.739204316664704,-73.91976258993529,9,9,0,6.5,0.03141040714114049,90,0.0017410228509249185,4.0,0.75
621,Amaze 58 Asian Fusion,$$,3.5,10022.0,40.759005200000004,-73.9620854,64,32,0,-49.12700000000001,0.02573684364735798,640,0.013710554951033732,3.5,0.625
622,New Peking,$,4.0,11372.0,40.749446899999995,-73.8884277,51,5,0,48.5,0.03569411229760885,510,0.01088139281828074,4.0,0.75
623,Golden Dragon,$,3.5,11106.0,40.7628708,-73.9209671,66,11,0,63.5,0.03722400699634754,660,0.014145810663764961,3.5,0.625
624,U Like,$,4.0,11206.0,40.694007873535206,-73.9492568969727,38,2,2,35.5,0.034368203558701974,380,0.008052230685527748,4.0,0.75
625,Li Wan Restaurant,$$,4.5,11379.0,40.7122917175293,-73.89613342285159,20,2,0,37.5,0.034572189518533795,200,0.004134929270946681,4.5,0.875
626,China Village Restaurant,$$,3.0,10013.0,40.7169789075851,-73.99971999228,58,218,10,-40.376666666666694,0.026629316219282193,580,0.012404787812840044,3.0,0.5
627,Chinese Musician Restaurant,$,3.0,11222.0,40.7303597,-73.9537321,99,5,5,96.5,0.040589775333572685,990,0.02132752992383025,3.0,0.5
628,Lin's Kitchen,$,3.5,11372.0,40.7506063047067,-73.8955131021168,35,6,2,32.5,0.03406222461895423,350,0.007399347116430903,3.5,0.625
629,Delicious Wok,$,4.5,11385.0,40.700309999999995,-73.89669,24,1,0,21.5,0.032940301839879185,240,0.00500544069640914,4.5,0.875
630,LuAnne's Wild Ginger All-Asian Vegan,$$,4.0,10013.0,40.720463099999996,-73.99649559999999,558,205,6,959.6233333333333,0.12862229613519546,5580,0.12121871599564744,4.0,0.75
631,Saw Shack,$,3.5,11372.0,40.7499285042286,-73.8821339607239,130,6,3,127.5,0.04375155771096599,1300,0.028073993471164307,3.5,0.625
632,Jung's Dried Beef,$,4.5,10013.0,40.715412,-73.999275,10,223,2,-146.3766666666667,0.01581806034819538,100,0.001958650707290533,4.5,0.875
633,Yung Sun Restaurant,$,3.0,10002.0,40.71338,-73.99580999999999,11,220,0,-123.5,0.018151319752071758,110,0.002176278563656148,3.0,0.5
634,King Wah Restaurant,$,4.0,11385.0,40.7099237520059,-73.89899767120279,61,2,0,58.5,0.03671404209676798,610,0.013057671381936888,4.0,0.75
635,New King Foo Chinese Food,$,3.0,10029.0,40.789493,-73.942916,8,23,0,-45.27428571428572,0.026129793458122587,80,0.0015233949945593036,3.0,0.5
636,Dumplings & Things,$,3.5,11104.0,40.7425888323281,-73.9189697784327,116,10,6,113.5,0.04232365599214321,1160,0.025027203482045703,3.5,0.625
637,Mr Rice's Kitchen,$,4.0,7307.0,40.7517,-74.05378,16,3,0,13.5,0.03212435800055188,160,0.003264417845484222,4.0,0.75
638,Xifu foods,$,4.5,11217.0,40.6880326,-73.9819963,16,6,10,13.5,0.03212435800055188,160,0.003264417845484222,4.5,0.875
639,Happy Fortune Chinese Restaurant,$,3.5,11377.0,40.7394203208105,-73.9183913628026,20,9,0,17.5,0.032532329920215534,200,0.004134929270946681,3.5,0.625
640,Benny's Lung Sheng,,2.0,10025.0,40.79829,-73.96378,4,25,1,-135.00333333333333,0.016978060506439036,40,0.0006528835690968443,2.0,0.25
641,Good Taste,$,3.5,11101.0,40.75437279999999,-73.9335449,25,4,2,22.5,0.0330422948197951,250,0.005223068552774755,3.5,0.625
642,Happy Eats,,3.0,10013.0,40.71521,-73.99861,2,226,0,-151.3766666666667,0.015308095448615814,20,0.0002176278563656148,3.0,0.5
643,New Hardee,$,4.5,11237.0,40.700656890869105,-73.9261474609375,6,1,2,3.5,0.031104428201392746,60,0.001088139281828074,4.5,0.875
644,Pasteur Grill and Noodles,$$,3.5,10013.0,40.71667,-73.99974,223,219,8,289.62333333333333,0.06028699959153357,2230,0.048313384113166484,3.5,0.625
645,Good Year Chinese Cuisine,$,3.5,7307.0,40.74883,-74.04701,74,5,0,71.5,0.03803995083567485,740,0.01588683351468988,3.5,0.625
646,Aux Epices,$$,4.0,10013.0,40.7181073647053,-73.9991025383579,249,216,15,341.62333333333333,0.06559063454716106,2490,0.05397170837867247,4.0,0.75
647,King Szechuan Palace,$$,3.5,7307.0,40.739697,-74.051612,89,1,0,175.5,0.04864722074692983,890,0.019151251360174103,3.5,0.625
648,Spice,$$,3.5,10025.0,40.8016123540962,-73.964790176728,86,25,1,26.99666666666667,0.03350092325281699,860,0.018498367791077257,3.5,0.625
649,Khe-Yo,$$$,4.0,10013.0,40.716906,-74.008587,511,32,15,1376.6233333333332,0.1711533687601313,5110,0.11099020674646355,4.0,0.75
650,Thai Soup,$$,4.0,10035.0,40.799678867234,-73.93973610207259,105,12,4,135.61,0.04457872077808405,1050,0.022633297062023938,4.0,0.75
651,Kum Kau,$$,3.5,11205.0,40.693573,-73.966702,197,3,0,391.5,0.0706777044087671,1970,0.0426550598476605,3.5,0.625
652,Jade Gourmet,$,4.0,7010.0,40.81275,-73.9926,28,2,0,25.5,0.033348273759542836,280,0.0058759521218716,4.0,0.75
653,New China Wok Chinese Kitchen,$,4.0,11217.0,40.68257,-73.97927,19,5,4,16.5,0.03243033694029962,190,0.003917301414581066,4.0,0.75
654,New Golden Dragon Restaurant,$,4.0,10031.0,40.8242006,-73.9455163,22,8,6,-48.72,0.025778354790183755,220,0.0045701849836779105,4.0,0.75
655,Dragon Palace,$$,3.5,10013.0,40.718769,-73.99897,3,216,15,-150.3766666666667,0.015410088428531728,30,0.0004352557127312296,3.5,0.625
656,Lin's Garden,$,3.5,11385.0,40.703453100000004,-73.9090729,33,2,2,30.5,0.03385823865912241,330,0.006964091403699674,3.5,0.625
657,Wong Wah Bakery House,$,4.0,10002.0,40.7154579,-73.9930816,26,225,6,-108.5,0.019681214450810457,260,0.00544069640914037,4.0,0.75
658,Saiguette,$$,4.0,10025.0,40.79898,-73.962707,438,25,1,730.9966666666667,0.10530398111361994,4380,0.09510337323177366,4.0,0.75
659,Great World Chinese Restaurant,,2.0,10001.0,40.747684,-74.000862,2,20,5,-111.31222222222222,0.019394387526180265,20,0.0002176278563656148,2.0,0.25
660,Lily's,$,2.5,10038.0,40.712104797363295,-73.99806213378909,50,205,0,0.5,0.030798449261645006,500,0.010663764961915125,2.5,0.375
661,Red Bowl,$$,3.5,11211.0,40.717049386629206,-73.958762175149,221,11,4,439.5,0.07557336744473094,2210,0.04787812840043525,3.5,0.625
662,Golden Mandarin Court,$$,2.5,10013.0,40.715965999999995,-73.99838199999999,160,226,5,163.6233333333333,0.0474358841221285,1600,0.03460282916213275,2.5,0.375
663,Chive Blossom NYC,$$,5.0,11249.0,40.710796,-73.963901,18,7,0,33.5,0.034164217598870145,180,0.0036996735582154514,5.0,1.0
664,I Fortune Cookie,$,3.0,11101.0,40.747727751731894,-73.94742026925091,34,2,8,31.5,0.033960231639038316,340,0.007181719260065288,3.0,0.5
665,Francesca Chinese Restaruant,$,3.5,7087.0,40.7680999,-74.0325,8,3,0,5.5,0.031308414161224575,80,0.0015233949945593036,3.5,0.625
666,Shanghai Lee,$,3.0,11222.0,40.7318,-73.9582099,109,3,1,106.5,0.041609705132731815,1090,0.0235038084874864,3.0,0.5
667,China Garden,$,5.0,11237.0,40.70327,-73.92162990000001,4,2,7,1.5,0.03090044224156092,40,0.0006528835690968443,5.0,1.0
668,Flame,$$,4.0,10024.0,40.78396,-73.97444,186,17,2,235.51999999999998,0.054768839401482944,1860,0.04026115342763874,4.0,0.75
669,Daily Chinese Restaurant,$,3.5,7086.0,40.775394399999996,-74.01978299999999,17,6,0,14.5,0.03222635098046779,170,0.003482045701849837,3.5,0.625
670,Green Zenphony,$$,4.5,11374.0,40.730219,-73.863865,86,1,6,169.5,0.04803526286743435,860,0.018498367791077257,4.5,0.875
671,Chinatown Kitchen,$,4.0,7093.0,40.7885757502878,-74.0158536518411,6,3,0,3.5,0.031104428201392746,60,0.001088139281828074,4.0,0.75
672,Cutting Board,$$,3.0,10013.0,40.71516,-73.99771,436,225,0,715.6233333333333,0.10373600903571263,4360,0.09466811751904244,3.0,0.5
673,Grand Sichuan NY II,$$,4.0,11374.0,40.7274381816387,-73.8557088375092,166,1,2,329.5,0.06435413965398047,1660,0.035908596300326445,4.0,0.75
674,Lovely Day,$$,3.5,10012.0,40.721771000000004,-73.994247,282,149,7,365.2669230769231,0.06800211472101912,2820,0.06115342763873776,3.5,0.625
675,Xin Lin Chinese Restaurant,$,4.0,7087.0,40.77735,-74.01873990000001,12,6,0,9.5,0.031716386080888226,120,0.002393906420021763,4.0,0.75
676,Number 1 Chinese Kitchen,$,3.0,7030.0,40.7446403503418,-74.02899169921879,38,5,0,35.5,0.034368203558701974,380,0.008052230685527748,3.0,0.5
677,Vanessa's Dumpling House,$,3.5,11211.0,40.713795000000005,-73.96198299999999,387,11,0,384.5,0.0699637535493557,3870,0.08400435255712731,3.5,0.625
678,Wah Yoan Restaurant II,$,3.5,7093.0,40.78225,-74.01201,13,7,0,10.5,0.03181837906080414,130,0.0026115342763873774,3.5,0.625
679,Dragon Gate Chinese Cuisine,$$,4.0,11105.0,40.7784616409036,-73.90190720558171,10,1,0,17.5,0.032532329920215534,100,0.001958650707290533,4.0,0.75
680,House Special,,5.0,10013.0,40.71785,-73.99679990000001,2,224,8,-151.3766666666667,0.015308095448615814,20,0.0002176278563656148,5.0,1.0
681,Kien Tuong,$,3.5,10002.0,40.7174491882324,-73.9945526123047,63,227,4,-71.5,0.02345495470769925,630,0.013492927094668117,3.5,0.625
682,Hey Hey Canteen,$$,4.0,11215.0,40.672157550816706,-73.9874984846558,81,4,4,159.5,0.04701533306827522,810,0.017410228509249184,4.0,0.75
683,China Red Restaurant,$,2.0,10007.0,40.715022999999995,-74.008636,17,39,23,-53.0,0.025341824836143646,170,0.003482045701849837,2.0,0.25
684,New Golden Bowl Restaurant,$,3.5,10002.0,40.71412,-73.99509,7,223,0,-127.5,0.017743347832408107,70,0.0013057671381936887,3.5,0.625
685,Hop Lee Kitchen,$,3.5,11222.0,40.7329216003418,-73.9544906616211,25,4,5,22.5,0.0330422948197951,250,0.005223068552774755,3.5,0.625
686,Queens Seafood Restaurant,$$,3.5,11373.0,40.741503200000004,-73.8825862,94,11,5,185.5,0.049667150546088966,940,0.020239390642002177,3.5,0.625
687,East Seafood restaurant,,4.0,10002.0,40.713924407959,-73.9966125488281,2,220,0,-129.5,0.01753936187257628,20,0.0002176278563656148,4.0,0.75
688,Sweet House Inc,,4.0,10002.0,40.7182758,-73.9946401,1,228,5,-132.0,0.017284379422786496,10,0.0,4.0,0.75
689,Hong Kong Express,$,4.0,11385.0,40.696141600000004,-73.9047676,35,3,6,32.5,0.03406222461895423,350,0.007399347116430903,4.0,0.75
690,Fish Cheeks,$$$,4.0,10012.0,40.7258,-73.9927,138,55,13,215.2669230769231,0.05270316773363212,1380,0.029815016322089227,4.0,0.75
691,Aquarius Seafood Restaurant,$$,3.5,7024.0,40.851555600000005,-73.9718064,126,2,0,249.5,0.056194701260707414,1260,0.02720348204570185,3.5,0.625
692,Flip Sigi,$$,4.5,10014.0,40.73405,-74.00641999999999,422,22,5,537.5336363636363,0.08557211014945125,4220,0.09162132752992383,4.5,0.875
693,MIGHTY Bowl,$,4.0,10012.0,40.72979,-74.00035,170,30,3,-28.733076923076908,0.027816880634149277,1700,0.0367791077257889,4.0,0.75
694,Peking Express,$,3.5,11222.0,40.725971,-73.942817,25,5,0,22.5,0.0330422948197951,250,0.005223068552774755,3.5,0.625
695,Zhà Pan Asian,$,4.5,10001.0,40.7489953,-73.9880316,19,44,21,-97.31222222222222,0.02082228924500305,190,0.003917301414581066,4.5,0.875
696,Asian Bowl,$,2.0,10022.0,40.7575340270996,-73.9703369140625,4,44,16,-173.127,0.01308971413778473,40,0.0006528835690968443,2.0,0.25
697,Potsticker Cart,,4.0,10023.0,40.7834014892578,-73.9663009643555,2,2,0,2.5,0.031002435221476835,20,0.0002176278563656148,4.0,0.75
698,Shanghai Cuisine,$$,3.0,10013.0,40.7158458,-73.99924759999999,272,223,5,387.62333333333333,0.07028231162329308,2720,0.05897714907508161,3.0,0.5
699,Herbs Thai Bistro,$$,3.5,10017.0,40.75193,-73.97099,129,35,0,182.85,0.049396869149311795,1290,0.027856365614798696,3.5,0.625
700,New Hua Yung Kitchen,$,4.5,10033.0,40.84596,-73.93873,16,5,7,-55.40888888888887,0.02509613508007954,160,0.003264417845484222,4.5,0.875
701,Happy Garden Palace,$,3.5,10002.0,40.713809999999995,-73.9955,12,222,0,-122.5,0.018253312731987673,120,0.002393906420021763,3.5,0.625
702,King Garden,$,3.5,11101.0,40.75524,-73.91837,43,3,2,40.5,0.03487816845828154,430,0.009140369967355821,3.5,0.625
703,Canton Lounge,$$,2.5,10013.0,40.716205,-73.997863,70,225,5,-16.376666666666694,0.029077147737264112,700,0.015016322089227421,2.5,0.375
704,China Chalet,$$,2.5,10004.0,40.7065651445594,-74.0129064216347,13,19,44,-38.233333333333334,0.026847921172901964,130,0.0026115342763873774,2.5,0.375
705,Chai Thai Kitchen,$$,3.5,10019.0,40.765409999999996,-73.98352,438,36,24,729.75,0.10517682986532477,4380,0.09510337323177366,3.5,0.625
706,David & Son's Caribbean Flavor,$,4.5,7307.0,40.7421999,-74.04919,15,3,0,12.5,0.03202236502063597,150,0.003046789989118607,4.5,0.875
707,Taste of China,$,4.0,7650.0,40.840344099999996,-73.9987694,43,3,0,40.5,0.03487816845828154,430,0.009140369967355821,4.0,0.75
708,Asia de Cuba,$$$,3.5,10003.0,40.72845,-73.99212,213,51,10,452.4971428571428,0.07689898477512376,2130,0.04613710554951034,3.5,0.625
709,Te Min Quan,$$,4.0,7650.0,40.8476677,-73.9978104,98,3,0,193.5,0.05048309438541627,980,0.021109902067464634,4.0,0.75
710,Golden Wok,$,3.5,11104.0,40.745129,-73.921549,28,10,6,25.5,0.033348273759542836,280,0.0058759521218716,3.5,0.625
711,C & L Dumpling House,$,3.5,10002.0,40.717277,-73.994598,100,227,4,-34.5,0.027228694964588043,1000,0.021545157780195865,3.5,0.625
712,Nan Xiang Xiao Long Bao,$,4.0,11354.0,40.7598810063385,-73.8325853625656,2595,3,6,2592.5,0.2951642532036923,25950,0.5645266594124048,4.0,0.75
713,Lucky Jade House,$,2.5,10032.0,40.84192,-73.93890999999999,9,4,7,-74.81,0.023117357944177578,90,0.0017410228509249185,2.5,0.375
714,Golden Star,$$,4.0,10033.0,40.8498685,-73.9362273,53,4,6,34.59111111111113,0.03427550327251173,530,0.011316648531011969,4.0,0.75
715,Off the Wall Chinese Cuisine,$,3.0,7030.0,40.742698700000005,-74.0296173,52,5,0,49.5,0.035796105277524755,520,0.011099020674646356,3.0,0.5
716,Joe's Ginger,$$,3.0,10013.0,40.714782,-73.998374,429,223,0,701.6233333333333,0.10230810731688984,4290,0.09314472252448314,3.0,0.5
717,Jardin De China,$$,4.0,11368.0,40.750579833984396,-73.8699264526367,174,1,5,345.5,0.06598602733263509,1740,0.03764961915125136,4.0,0.75
718,Broadway China Station,$,3.5,11106.0,40.7616886,-73.92587569999999,29,13,3,26.5,0.03345026673945875,290,0.006093579978237214,3.5,0.625
719,Obao,$$,3.5,10022.0,40.757121999999995,-73.96856600000001,623,39,15,1068.873,0.13976499519334903,6230,0.1353645266594124,3.5,0.625
720,Old Sichuan,$$,3.0,10013.0,40.715309000000005,-73.998199,115,226,0,73.6233333333333,0.038256515929696304,1150,0.024809575625680088,3.0,0.5
721,Tina,$,3.0,10003.0,40.73332,-73.98651,9,59,7,-177.50285714285718,0.012643407428098392,90,0.0017410228509249185,3.0,0.5
722,Number 1 Chinese Restaurant,$,4.0,11377.0,40.74965,-73.89898000000001,22,6,2,19.5,0.032736315880047356,220,0.0045701849836779105,4.0,0.75
723,Wan's Garden,$,4.0,11385.0,40.702864,-73.901421,17,3,2,14.5,0.03222635098046779,170,0.003482045701849837,4.0,0.75
